{
"type": "FeatureCollection",
"name": "Locations",
"crs": { "type": "name", "properties": { "name": "urn:ogc:def:crs:OGC:1.3:CRS84" } },
"features": [
{ "type": "Feature", "properties": { "Name": "Target Allen Park", "ZIP": "48101-2870", "Address": "3100 Fairlane Dr", "City": "Allen Park", "State": "MI" }, "geometry": { "type": "Point", "coordinates": [ -83.2073108, 42.2850984, 0.0 ] } },
{ "type": "Feature", "properties": { "Name": "Target Ann Arbor", "ZIP": "48103-8999", "Address": "2000 Waters Rd", "City": "Ann Arbor", "State": "MI" }, "geometry": { "type": "Point", "coordinates": [ -83.7698716, 42.2437782, 0.0 ] } },
{ "type": "Feature", "properties": { "Name": "Target Ann Arbor State", "ZIP": "48104-2005", "Address": "231 S State St", "City": "Ann Arbor", "State": "MI" }, "geometry": { "type": "Point", "coordinates": [ -83.7404162, 42.2795454, 0.0 ] } },
{ "type": "Feature", "properties": { "Name": "Target Bloomfield Hills", "ZIP": "48302-0255", "Address": "2400 S Telegraph Rd", "City": "Bloomfield Hills", "State": "MI" }, "geometry": { "type": "Point", "coordinates": [ -83.2939101, 42.603593, 0.0 ] } },
{ "type": "Feature", "properties": { "Name": "Target Canton Ford Rd", "ZIP": "48187-3101", "Address": "43670 Ford Rd", "City": "Canton", "State": "MI" }, "geometry": { "type": "Point", "coordinates": [ -83.4708567, 42.3231575, 0.0 ] } },
{ "type": "Feature", "properties": { "Name": "Target Canton Mich ave", "ZIP": "48188-2310", "Address": "47330 Michigan Ave", "City": "Canton", "State": "MI" }, "geometry": { "type": "Point", "coordinates": [ -83.5035215, 42.2701238, 0.0 ] } },
{ "type": "Feature", "properties": { "Name": "Target Chesterfield", "ZIP": "48051-2007", "Address": "51400 Gratiot Ave", "City": "Chesterfield", "State": "MI" }, "geometry": { "type": "Point", "coordinates": [ -82.8287887, 42.6772956, 0.0 ] } },
{ "type": "Feature", "properties": { "Name": "Target Clinton Township", "ZIP": "48035-6115", "Address": "33860 S Gratiot Ave", "City": "Clinton Township", "State": "MI" }, "geometry": { "type": "Point", "coordinates": [ -82.9020782, 42.5456643, 0.0 ] } },
{ "type": "Feature", "properties": { "Name": "Target Dearborn", "ZIP": "48126-2800", "Address": "15901 Ford Rd", "City": "Dearborn", "State": "MI" }, "geometry": { "type": "Point", "coordinates": [ -83.1995082, 42.3278293, 0.0 ] } },
{ "type": "Feature", "properties": { "Name": "Target Dearborn Heights", "ZIP": "48127-2841", "Address": "26650 Ford Rd", "City": "Dearborn Heights", "State": "MI" }, "geometry": { "type": "Point", "coordinates": [ -83.302238, 42.328455, 0.0 ] } },
{ "type": "Feature", "properties": { "Name": "Target Farmington Hills", "ZIP": "48336-4722", "Address": "30020 Grand River Ave", "City": "Farmington Hills", "State": "MI" }, "geometry": { "type": "Point", "coordinates": [ -83.3440389, 42.4523745, 0.0 ] } },
{ "type": "Feature", "properties": { "Name": "Target Livonia", "ZIP": "48150-2112", "Address": "29451 Plymouth Rd", "City": "Livonia", "State": "MI" }, "geometry": { "type": "Point", "coordinates": [ -83.334533, 42.366326, 0.0 ] } },
{ "type": "Feature", "properties": { "Name": "Target Northville", "ZIP": "48152-1087", "Address": "20100 Haggerty Rd", "City": "Livonia", "State": "MI" }, "geometry": { "type": "Point", "coordinates": [ -83.4306694, 42.4342913, 0.0 ] } },
{ "type": "Feature", "properties": { "Name": "Target Macomb", "ZIP": "48044-4526", "Address": "20877 Hall Rd", "City": "Macomb", "State": "MI" }, "geometry": { "type": "Point", "coordinates": [ -82.9119992, 42.6311423, 0.0 ] } },
{ "type": "Feature", "properties": { "Name": "Target Madison Heights", "ZIP": "48071-1322", "Address": "32001 John R Rd", "City": "Madison Heights", "State": "MI" }, "geometry": { "type": "Point", "coordinates": [ -83.1081466, 42.5283432, 0.0 ] } },
{ "type": "Feature", "properties": { "Name": "Target Novi", "ZIP": "48374-1115", "Address": "27100 Wixom Rd", "City": "Novi", "State": "MI" }, "geometry": { "type": "Point", "coordinates": [ -83.534171, 42.4877153, 0.0 ] } },
{ "type": "Feature", "properties": { "Name": "Target Rochester Hills", "ZIP": "48307-4580", "Address": "2887 S Rochester Rd", "City": "Rochester Hills", "State": "MI" }, "geometry": { "type": "Point", "coordinates": [ -83.129214, 42.6373893, 0.0 ] } },
{ "type": "Feature", "properties": { "Name": "Target Shelby Township", "ZIP": "48316-5132", "Address": "8200 26 Mile Rd", "City": "Shelby Township", "State": "MI" }, "geometry": { "type": "Point", "coordinates": [ -83.0327606, 42.7111129, 0.0 ] } },
{ "type": "Feature", "properties": { "Name": "Target Southfield", "ZIP": "48076-1352", "Address": "30333 Southfield Rd", "City": "Southfield", "State": "MI" }, "geometry": { "type": "Point", "coordinates": [ -83.2255048, 42.5133935, 0.0 ] } },
{ "type": "Feature", "properties": { "Name": "Target Sterling Heights", "ZIP": "48310-4209", "Address": "2310 Metropolitan Pkwy", "City": "Sterling Heights", "State": "MI" }, "geometry": { "type": "Point", "coordinates": [ -83.0846209, 42.5615677, 0.0 ] } },
{ "type": "Feature", "properties": { "Name": "Target Taylor", "ZIP": "48180-4792", "Address": "14099 Pardee Rd", "City": "Taylor", "State": "MI" }, "geometry": { "type": "Point", "coordinates": [ -83.255786, 42.2036324, 0.0 ] } },
{ "type": "Feature", "properties": { "Name": "Target Troy", "ZIP": "48084-7017", "Address": "1301 Coolidge Hwy", "City": "Troy", "State": "MI" }, "geometry": { "type": "Point", "coordinates": [ -83.1902035, 42.5451436, 0.0 ] } },
{ "type": "Feature", "properties": { "Name": "Target Utica", "ZIP": "48315-5834", "Address": "13221 Hall Rd", "City": "Utica", "State": "MI" }, "geometry": { "type": "Point", "coordinates": [ -82.9973589, 42.6281776, 0.0 ] } },
{ "type": "Feature", "properties": { "Name": "Target Walled Lake", "ZIP": "48390-3936", "Address": "495 Haggerty Hwy", "City": "Walled Lake", "State": "MI" }, "geometry": { "type": "Point", "coordinates": [ -83.4418444, 42.5340785, 0.0 ] } },
{ "type": "Feature", "properties": { "Name": "Target Warren", "ZIP": "48092-2466", "Address": "28800 Dequindre Rd", "City": "Warren", "State": "MI" }, "geometry": { "type": "Point", "coordinates": [ -83.0827762, 42.5042477, 0.0 ] } },
{ "type": "Feature", "properties": { "Name": "Target Westland", "ZIP": "48185-6590", "Address": "35401 Warren Rd", "City": "Westland", "State": "MI" }, "geometry": { "type": "Point", "coordinates": [ -83.3907906, 42.3369533, 0.0 ] } },
{ "type": "Feature", "properties": { "Name": "Target Ypsilanti", "ZIP": "48197-9809", "Address": "3749 Carpenter Rd", "City": "Ypsilanti", "State": "MI" }, "geometry": { "type": "Point", "coordinates": [ -83.6770285, 42.2356004, 0.0 ] } }
]
}
