[
  {
    "Lat":40.76623,
    "Lon":-111.84755,
    "Temp":74.48,
    "Station":"WBB"
  },
  {
    "Lat":40.6756,
    "Lon":-111.8259,
    "Temp":75.6,
    "Station":"HOL"
  },
  {
    "Lat":40.66,
    "Lon":-111.5149,
    "Temp":58.17,
    "Station":"SNC"
  },
  {
    "Lat":40.8754,
    "Lon":-111.8716,
    "Temp":68.95,
    "Station":"SNZ"
  },
  {
    "Lat":40.659,
    "Lon":-112.202,
    "Temp":58.44,
    "Station":"FWP"
  },
  {
    "Lat":41.1995,
    "Lon":-111.859,
    "Temp":54.09,
    "Station":"SNI"
  },
  {
    "Lat":41.2151,
    "Lon":-111.8582,
    "Temp":63.3,
    "Station":"SBE"
  },
  {
    "Lat":41.1856,
    "Lon":-111.8696,
    "Temp":58.73,
    "Station":"SB2"
  },
  {
    "Lat":40.6474,
    "Lon":-111.5197,
    "Temp":63.75,
    "Station":"PCS"
  },
  {
    "Lat":40.625,
    "Lon":-111.53,
    "Temp":57.04,
    "Station":"PCT"
  },
  {
    "Lat":40.6152,
    "Lon":-111.511,
    "Temp":52,
    "Station":"SNV"
  },
  {
    "Lat":40.6089,
    "Lon":-111.4802,
    "Temp":57.99,
    "Station":"MBY"
  },
  {
    "Lat":40.634029,
    "Lon":-111.479465,
    "Temp":0,
    "Station":"DVE"
  },
  {
    "Lat":40.6236,
    "Lon":-111.4809,
    "Temp":62.01,
    "Station":"DVB"
  },
  {
    "Lat":40.6119,
    "Lon":-111.5272,
    "Temp":0,
    "Station":"EMPUT"
  },
  {
    "Lat":40.683,
    "Lon":-111.574,
    "Temp":62.91,
    "Station":"CLK"
  },
  {
    "Lat":38.2898,
    "Lon":-111.2619,
    "Temp":82.6,
    "Station":"CRN"
  },
  {
    "Lat":41.07073,
    "Lon":-112.58621,
    "Temp":75.99,
    "Station":"HATUT"
  },
  {
    "Lat":40.942113,
    "Lon":-112.56196,
    "Temp":77.5,
    "Station":"BGRUT"
  },
  {
    "Lat":41.06084,
    "Lon":-112.89173,
    "Temp":72,
    "Station":"LMR"
  },
  {
    "Lat":40.4406,
    "Lon":-111.7063,
    "Temp":65.25,
    "Station":"TPC"
  },
  {
    "Lat":43.6612,
    "Lon":-114.4021,
    "Temp":57.63,
    "Station":"SVB"
  },
  {
    "Lat":43.596969,
    "Lon":-110.870756,
    "Temp":46.99,
    "Station":"JHS"
  },
  {
    "Lat":40.77069,
    "Lon":-111.96503,
    "Temp":73.94,
    "Station":"KSLC"
  },
  {
    "Lat":40.6196,
    "Lon":-111.99016,
    "Temp":73.42,
    "Station":"KU42"
  },
  {
    "Lat":41.11667,
    "Lon":-111.96667,
    "Temp":75.38,
    "Station":"KHIF"
  },
  {
    "Lat":41.19361,
    "Lon":-112.01639,
    "Temp":75.92,
    "Station":"KOGD"
  },
  {
    "Lat":41.51,
    "Lon":-112.05,
    "Temp":75.56,
    "Station":"KBMC"
  },
  {
    "Lat":40.21667,
    "Lon":-111.71667,
    "Temp":73.4,
    "Station":"KPVU"
  },
  {
    "Lat":41.78278,
    "Lon":-111.85389,
    "Temp":73.04,
    "Station":"KLGU"
  },
  {
    "Lat":39.60917,
    "Lon":-110.75472,
    "Temp":78.08,
    "Station":"KPUC"
  },
  {
    "Lat":40.44295,
    "Lon":-109.51273,
    "Temp":71.96,
    "Station":"KVEL"
  },
  {
    "Lat":44.40417,
    "Lon":-118.9625,
    "Temp":79.7,
    "Station":"KGCD"
  },
  {
    "Lat":41.49139,
    "Lon":-120.56444,
    "Temp":87.08,
    "Station":"KAAT"
  },
  {
    "Lat":35.04167,
    "Lon":-106.61472,
    "Temp":71.06,
    "Station":"KABQ"
  },
  {
    "Lat":40.97806,
    "Lon":-124.10861,
    "Temp":66.92,
    "Station":"KACV"
  },
  {
    "Lat":35.145,
    "Lon":-106.795,
    "Temp":64.4,
    "Station":"KAEG"
  },
  {
    "Lat":38.96667,
    "Lon":-104.81667,
    "Temp":66.02,
    "Station":"KAFF"
  },
  {
    "Lat":40.17428,
    "Lon":-103.21459,
    "Temp":68,
    "Station":"KAKO"
  },
  {
    "Lat":32.83333,
    "Lon":-105.98333,
    "Temp":73.4,
    "Station":"KALM"
  },
  {
    "Lat":37.43933,
    "Lon":-105.8618,
    "Temp":60.08,
    "Station":"KALS"
  },
  {
    "Lat":46.095,
    "Lon":-118.28417,
    "Temp":89.06,
    "Station":"KALW"
  },
  {
    "Lat":39.55991,
    "Lon":-104.84841,
    "Temp":71.06,
    "Station":"KAPA"
  },
  {
    "Lat":38.2075,
    "Lon":-122.27944,
    "Temp":69.98,
    "Station":"KAPC"
  },
  {
    "Lat":39.22992,
    "Lon":-106.87051,
    "Temp":62.06,
    "Station":"KASE"
  },
  {
    "Lat":46.15694,
    "Lon":-123.8825,
    "Temp":71.96,
    "Station":"KAST"
  },
  {
    "Lat":32.8525,
    "Lon":-104.4675,
    "Temp":87.8,
    "Station":"KATS"
  },
  {
    "Lat":48.16667,
    "Lon":-122.16667,
    "Temp":78.8,
    "Station":"KAWO"
  },
  {
    "Lat":39.13333,
    "Lon":-121.43333,
    "Temp":97.7,
    "Station":"KBAB"
  },
  {
    "Lat":37.70639,
    "Lon":-112.14556,
    "Temp":68,
    "Station":"KBCE"
  },
  {
    "Lat":37.62,
    "Lon":-109.47,
    "Temp":78.08,
    "Station":"KBDG"
  },
  {
    "Lat":47.54583,
    "Lon":-122.31361,
    "Temp":84.02,
    "Station":"KBFI"
  },
  {
    "Lat":35.43361,
    "Lon":-119.05667,
    "Temp":98.96,
    "Station":"KBFL"
  },
  {
    "Lat":46.34778,
    "Lon":-104.2575,
    "Temp":69.08,
    "Station":"KBHK"
  },
  {
    "Lat":37.37111,
    "Lon":-118.35806,
    "Temp":91.04,
    "Station":"KBIH"
  },
  {
    "Lat":45.80694,
    "Lon":-108.54222,
    "Temp":75.02,
    "Station":"KBIL"
  },
  {
    "Lat":39.90085,
    "Lon":-105.10417,
    "Temp":73.4,
    "Station":"KBJC"
  },
  {
    "Lat":44.83722,
    "Lon":-117.80917,
    "Temp":75.92,
    "Station":"KBKE"
  },
  {
    "Lat":39.71331,
    "Lon":-104.75806,
    "Temp":73.04,
    "Station":"KBKF"
  },
  {
    "Lat":33.61917,
    "Lon":-114.71694,
    "Temp":98.96,
    "Station":"KBLH"
  },
  {
    "Lat":48.79911,
    "Lon":-122.54064,
    "Temp":77,
    "Station":"KBLI"
  },
  {
    "Lat":39.27611,
    "Lon":-120.70806,
    "Temp":80.06,
    "Station":"KBLU"
  },
  {
    "Lat":43.595,
    "Lon":-118.95639,
    "Temp":78.08,
    "Station":"KBNO"
  },
  {
    "Lat":43.56704,
    "Lon":-116.24053,
    "Temp":82.94,
    "Station":"KBOI"
  },
  {
    "Lat":42.57889,
    "Lon":-110.10306,
    "Temp":64.04,
    "Station":"KBPI"
  },
  {
    "Lat":45.95472,
    "Lon":-112.4975,
    "Temp":69.08,
    "Station":"KBTM"
  },
  {
    "Lat":34.19967,
    "Lon":-118.36538,
    "Temp":75.02,
    "Station":"KBUR"
  },
  {
    "Lat":44.38139,
    "Lon":-106.71889,
    "Temp":62.96,
    "Station":"KBYG"
  },
  {
    "Lat":42.5425,
    "Lon":-113.77139,
    "Temp":69.08,
    "Station":"KBYI"
  },
  {
    "Lat":35.28333,
    "Lon":-116.61667,
    "Temp":83.3,
    "Station":"KBYS"
  },
  {
    "Lat":45.78806,
    "Lon":-111.16083,
    "Temp":66.02,
    "Station":"KBZN"
  },
  {
    "Lat":40.49297,
    "Lon":-107.52394,
    "Temp":62.06,
    "Station":"KCAG"
  },
  {
    "Lat":36.44833,
    "Lon":-103.15306,
    "Temp":69.08,
    "Station":"KCAO"
  },
  {
    "Lat":37.99167,
    "Lon":-122.05194,
    "Temp":84.02,
    "Station":"KCCR"
  },
  {
    "Lat":37.70667,
    "Lon":-113.09667,
    "Temp":75.92,
    "Station":"KCDC"
  },
  {
    "Lat":41.78028,
    "Lon":-124.23667,
    "Temp":64.94,
    "Station":"KCEC"
  },
  {
    "Lat":37.30706,
    "Lon":-108.62644,
    "Temp":68,
    "Station":"KCEZ"
  },
  {
    "Lat":32.95,
    "Lon":-111.76667,
    "Temp":86,
    "Station":"KCGZ"
  },
  {
    "Lat":48.12194,
    "Lon":-123.50661,
    "Temp":66.92,
    "Station":"KCLM"
  },
  {
    "Lat":34.21667,
    "Lon":-119.08333,
    "Temp":68,
    "Station":"KCMA"
  },
  {
    "Lat":32.3375,
    "Lon":-104.26333,
    "Temp":86,
    "Station":"KCNM"
  },
  {
    "Lat":33.97556,
    "Lon":-117.62361,
    "Temp":78.98,
    "Station":"KCNO"
  },
  {
    "Lat":38.76,
    "Lon":-109.74472,
    "Temp":80.06,
    "Station":"KCNY"
  },
  {
    "Lat":44.51667,
    "Lon":-109.01667,
    "Temp":69.8,
    "Station":"KCOD"
  },
  {
    "Lat":47.76667,
    "Lon":-116.81667,
    "Temp":75.2,
    "Station":"KCOE"
  },
  {
    "Lat":38.80948,
    "Lon":-104.68872,
    "Temp":71.06,
    "Station":"KCOS"
  },
  {
    "Lat":42.8975,
    "Lon":-106.47306,
    "Temp":60.98,
    "Station":"KCPR"
  },
  {
    "Lat":35,
    "Lon":-105.66667,
    "Temp":59,
    "Station":"KCQC"
  },
  {
    "Lat":34.01667,
    "Lon":-118.28333,
    "Temp":71.96,
    "Station":"KCQT"
  },
  {
    "Lat":33.13,
    "Lon":-117.27583,
    "Temp":69.08,
    "Station":"KCRQ"
  },
  {
    "Lat":48.60833,
    "Lon":-112.37611,
    "Temp":68,
    "Station":"KCTB"
  },
  {
    "Lat":34.43333,
    "Lon":-103.08333,
    "Temp":75.2,
    "Station":"KCVN"
  },
  {
    "Lat":44.5,
    "Lon":-123.28333,
    "Temp":93.2,
    "Station":"KCVO"
  },
  {
    "Lat":34.38333,
    "Lon":-103.31667,
    "Temp":80.06,
    "Station":"KCVS"
  },
  {
    "Lat":41.15789,
    "Lon":-104.80812,
    "Temp":69.08,
    "Station":"KCYS"
  },
  {
    "Lat":32.62611,
    "Lon":-116.46833,
    "Temp":73.94,
    "Station":"KCZZ"
  },
  {
    "Lat":34.85361,
    "Lon":-116.78667,
    "Temp":82.94,
    "Station":"KDAG"
  },
  {
    "Lat":39.84658,
    "Lon":-104.65622,
    "Temp":71.96,
    "Station":"KDEN"
  },
  {
    "Lat":47.97417,
    "Lon":-117.42833,
    "Temp":82.94,
    "Station":"KDEW"
  },
  {
    "Lat":42.79417,
    "Lon":-105.38194,
    "Temp":66.92,
    "Station":"KDGW"
  },
  {
    "Lat":45.2575,
    "Lon":-112.55444,
    "Temp":66.02,
    "Station":"KDLN"
  },
  {
    "Lat":45.61861,
    "Lon":-121.16722,
    "Temp":93.02,
    "Station":"KDLS"
  },
  {
    "Lat":32.16667,
    "Lon":-110.88333,
    "Temp":75.2,
    "Station":"KDMA"
  },
  {
    "Lat":32.26222,
    "Lon":-107.72056,
    "Temp":66.92,
    "Station":"KDMN"
  },
  {
    "Lat":36.6207,
    "Lon":-116.02868,
    "Temp":91.94,
    "Station":"KDRA"
  },
  {
    "Lat":37.14312,
    "Lon":-107.76023,
    "Temp":66.92,
    "Station":"KDRO"
  },
  {
    "Lat":33.69026,
    "Lon":-112.06618,
    "Temp":89.96,
    "Station":"KDVT"
  },
  {
    "Lat":47.39889,
    "Lon":-120.20694,
    "Temp":87.98,
    "Station":"KEAT"
  },
  {
    "Lat":34.91667,
    "Lon":-117.9,
    "Temp":87.8,
    "Station":"KEDW"
  },
  {
    "Lat":34.76611,
    "Lon":-114.62333,
    "Temp":100.94,
    "Station":"KEED"
  },
  {
    "Lat":40.0444,
    "Lon":-107.88832,
    "Temp":66.92,
    "Station":"KEEO"
  },
  {
    "Lat":39.65,
    "Lon":-106.91667,
    "Temp":71.6,
    "Station":"KEGE"
  },
  {
    "Lat":40.8098,
    "Lon":-124.1602,
    "Temp":64,
    "Station":"EKA01"
  },
  {
    "Lat":40.82404,
    "Lon":-115.78635,
    "Temp":78.98,
    "Station":"KEKO"
  },
  {
    "Lat":47.03377,
    "Lon":-120.53132,
    "Temp":87.08,
    "Station":"KELN"
  },
  {
    "Lat":39.295,
    "Lon":-114.84528,
    "Temp":75.92,
    "Station":"KELY"
  },
  {
    "Lat":34.08333,
    "Lon":-118.03333,
    "Temp":77,
    "Station":"KEMT"
  },
  {
    "Lat":40.72056,
    "Lon":-114.03583,
    "Temp":78.8,
    "Station":"KENV"
  },
  {
    "Lat":47.3075,
    "Lon":-119.51583,
    "Temp":87.98,
    "Station":"KEPH"
  },
  {
    "Lat":44.13333,
    "Lon":-123.21444,
    "Temp":93.02,
    "Station":"KEUG"
  },
  {
    "Lat":43.63333,
    "Lon":-116.63333,
    "Temp":80.6,
    "Station":"KEUL"
  },
  {
    "Lat":36.78,
    "Lon":-119.71944,
    "Temp":100.94,
    "Station":"KFAT"
  },
  {
    "Lat":38.7,
    "Lon":-104.76667,
    "Temp":71.24,
    "Station":"KFCS"
  },
  {
    "Lat":33.46667,
    "Lon":-111.73333,
    "Temp":89.6,
    "Station":"KFFZ"
  },
  {
    "Lat":48.52028,
    "Lon":-123.02528,
    "Temp":71.96,
    "Station":"KFHR"
  },
  {
    "Lat":31.58333,
    "Lon":-110.33333,
    "Temp":69.98,
    "Station":"KFHU"
  },
  {
    "Lat":35.14028,
    "Lon":-111.67222,
    "Temp":68,
    "Station":"KFLG"
  },
  {
    "Lat":36.74361,
    "Lon":-108.22917,
    "Temp":73.94,
    "Station":"KFMN"
  },
  {
    "Lat":40.45,
    "Lon":-105.01667,
    "Temp":75.2,
    "Station":"KFNL"
  },
  {
    "Lat":33.87194,
    "Lon":-117.98472,
    "Temp":75.02,
    "Station":"KFUL"
  },
  {
    "Lat":32.8875,
    "Lon":-112.72,
    "Temp":94.1,
    "Station":"KGXF"
  },
  {
    "Lat":44.33944,
    "Lon":-105.54194,
    "Temp":60.08,
    "Station":"KGCC"
  },
  {
    "Lat":35.94611,
    "Lon":-112.15472,
    "Temp":78.08,
    "Station":"KGCN"
  },
  {
    "Lat":47.13333,
    "Lon":-104.8,
    "Temp":68,
    "Station":"KGDV"
  },
  {
    "Lat":47.62139,
    "Lon":-117.52778,
    "Temp":84.02,
    "Station":"KGEG"
  },
  {
    "Lat":33.52722,
    "Lon":-112.29528,
    "Temp":96.8,
    "Station":"KGEU"
  },
  {
    "Lat":47.5,
    "Lon":-111.18333,
    "Temp":71.42,
    "Station":"KGFA"
  },
  {
    "Lat":48.21389,
    "Lon":-106.62139,
    "Temp":71.96,
    "Station":"KGGW"
  },
  {
    "Lat":39.13389,
    "Lon":-108.53861,
    "Temp":73.94,
    "Station":"KGJT"
  },
  {
    "Lat":35.16528,
    "Lon":-107.90222,
    "Temp":59,
    "Station":"KGNT"
  },
  {
    "Lat":47.11667,
    "Lon":-122.55,
    "Temp":86.36,
    "Station":"KGRF"
  },
  {
    "Lat":47.47333,
    "Lon":-111.38222,
    "Temp":68,
    "Station":"KGTF"
  },
  {
    "Lat":38.53333,
    "Lon":-106.93333,
    "Temp":64.4,
    "Station":"KGUC"
  },
  {
    "Lat":35.51111,
    "Lon":-108.78944,
    "Temp":64.04,
    "Station":"KGUP"
  },
  {
    "Lat":40.43333,
    "Lon":-104.63333,
    "Temp":73.4,
    "Station":"KGXY"
  },
  {
    "Lat":33.41667,
    "Lon":-112.38333,
    "Temp":95,
    "Station":"KGYR"
  },
  {
    "Lat":40.48333,
    "Lon":-107.21667,
    "Temp":64.4,
    "Station":"KHDN"
  },
  {
    "Lat":33.92361,
    "Lon":-118.33194,
    "Temp":71.96,
    "Station":"KHHR"
  },
  {
    "Lat":45.54806,
    "Lon":-122.95444,
    "Temp":89.96,
    "Station":"KHIO"
  },
  {
    "Lat":36.31861,
    "Lon":-119.62889,
    "Temp":100.04,
    "Station":"KHJO"
  },
  {
    "Lat":46.60445,
    "Lon":-111.9892,
    "Temp":73.94,
    "Station":"KHLN"
  },
  {
    "Lat":32.85,
    "Lon":-106.1,
    "Temp":73.94,
    "Station":"KHMN"
  },
  {
    "Lat":32.68333,
    "Lon":-103.21667,
    "Temp":80.6,
    "Station":"KHOB"
  },
  {
    "Lat":46.97111,
    "Lon":-123.92,
    "Temp":71.06,
    "Station":"KHQM"
  },
  {
    "Lat":45.82583,
    "Lon":-119.26111,
    "Temp":89.06,
    "Station":"KHRI"
  },
  {
    "Lat":48.54278,
    "Lon":-109.76333,
    "Temp":75.02,
    "Station":"KHVR"
  },
  {
    "Lat":37.66083,
    "Lon":-122.11833,
    "Temp":68,
    "Station":"KHWD"
  },
  {
    "Lat":43.52083,
    "Lon":-112.06611,
    "Temp":73.94,
    "Station":"KIDA"
  },
  {
    "Lat":35.1575,
    "Lon":-114.55944,
    "Temp":100.4,
    "Station":"KIFP"
  },
  {
    "Lat":35.25778,
    "Lon":-113.93306,
    "Temp":87.08,
    "Station":"KIGM"
  },
  {
    "Lat":35.02806,
    "Lon":-110.72083,
    "Temp":71.06,
    "Station":"KINW"
  },
  {
    "Lat":32.83417,
    "Lon":-115.57861,
    "Temp":98.06,
    "Station":"KIPL"
  },
  {
    "Lat":39.24149,
    "Lon":-102.2819,
    "Temp":66.92,
    "Station":"KITR"
  },
  {
    "Lat":33.31667,
    "Lon":-111.65,
    "Temp":87.8,
    "Station":"KIWA"
  },
  {
    "Lat":43.6,
    "Lon":-110.73333,
    "Temp":59,
    "Station":"KJAC"
  },
  {
    "Lat":47.32583,
    "Lon":-106.9475,
    "Temp":69.98,
    "Station":"KJDN"
  },
  {
    "Lat":42.72667,
    "Lon":-114.45722,
    "Temp":69.08,
    "Station":"KJER"
  },
  {
    "Lat":38.07178,
    "Lon":-102.68745,
    "Temp":75.02,
    "Station":"KLAA"
  },
  {
    "Lat":35.87972,
    "Lon":-106.26917,
    "Temp":58.28,
    "Station":"KLAM"
  },
  {
    "Lat":41.3165,
    "Lon":-105.67287,
    "Temp":62.06,
    "Station":"KLAR"
  },
  {
    "Lat":36.07188,
    "Lon":-115.1634,
    "Temp":93.92,
    "Station":"KLAS"
  },
  {
    "Lat":33.93806,
    "Lon":-118.38889,
    "Temp":69.8,
    "Station":"KLAX"
  },
  {
    "Lat":33.81167,
    "Lon":-118.14639,
    "Temp":75.92,
    "Station":"KLGB"
  },
  {
    "Lat":45.28333,
    "Lon":-118,
    "Temp":78.8,
    "Station":"KLGD"
  },
  {
    "Lat":38.04949,
    "Lon":-103.51334,
    "Temp":80.06,
    "Station":"KLHX"
  },
  {
    "Lat":39.27334,
    "Lon":-103.66738,
    "Temp":64.94,
    "Station":"KLIC"
  },
  {
    "Lat":42.16667,
    "Lon":-120.4,
    "Temp":77,
    "Station":"KLKV"
  },
  {
    "Lat":44.52278,
    "Lon":-114.215,
    "Temp":71.96,
    "Station":"KLLJ"
  },
  {
    "Lat":42.14694,
    "Lon":-121.72417,
    "Temp":82.04,
    "Station":"KLMT"
  },
  {
    "Lat":42.81472,
    "Lon":-108.72806,
    "Temp":69.98,
    "Station":"KLND"
  },
  {
    "Lat":40.0684,
    "Lon":-118.57017,
    "Temp":89.06,
    "Station":"KLOL"
  },
  {
    "Lat":34.66667,
    "Lon":-120.46667,
    "Temp":62.6,
    "Station":"KLPC"
  },
  {
    "Lat":32.28944,
    "Lon":-106.92194,
    "Temp":68.9,
    "Station":"KLRU"
  },
  {
    "Lat":36.23333,
    "Lon":-115.03333,
    "Temp":93.74,
    "Station":"KLSV"
  },
  {
    "Lat":33.53333,
    "Lon":-112.38333,
    "Temp":95,
    "Station":"KLUF"
  },
  {
    "Lat":37.69278,
    "Lon":-121.81444,
    "Temp":82.94,
    "Station":"KLVK"
  },
  {
    "Lat":45.69944,
    "Lon":-110.44833,
    "Temp":66.02,
    "Station":"KLVM"
  },
  {
    "Lat":35.65417,
    "Lon":-105.1425,
    "Temp":57.02,
    "Station":"KLVS"
  },
  {
    "Lat":46.37472,
    "Lon":-117.01444,
    "Temp":87.98,
    "Station":"KLWS"
  },
  {
    "Lat":47.04917,
    "Lon":-109.46639,
    "Temp":64.94,
    "Station":"KLWT"
  },
  {
    "Lat":39.22806,
    "Lon":-106.31611,
    "Temp":59,
    "Station":"KLXV"
  },
  {
    "Lat":36.98667,
    "Lon":-120.11083,
    "Temp":96.08,
    "Station":"KMAE"
  },
  {
    "Lat":38.66667,
    "Lon":-121.4,
    "Temp":98.6,
    "Station":"KMCC"
  },
  {
    "Lat":37.28306,
    "Lon":-120.50778,
    "Temp":96.08,
    "Station":"KMCE"
  },
  {
    "Lat":45.51139,
    "Lon":-118.42472,
    "Temp":71.96,
    "Station":"KMEH"
  },
  {
    "Lat":37.36667,
    "Lon":-120.56667,
    "Temp":91.4,
    "Station":"KMER"
  },
  {
    "Lat":42.38111,
    "Lon":-122.87222,
    "Temp":100.04,
    "Station":"KMFR"
  },
  {
    "Lat":38.55,
    "Lon":-121.3,
    "Temp":100.4,
    "Station":"KMHR"
  },
  {
    "Lat":41.31583,
    "Lon":-122.31611,
    "Temp":78.08,
    "Station":"KMHS"
  },
  {
    "Lat":35.06667,
    "Lon":-118.15,
    "Temp":89.6,
    "Station":"KMHV"
  },
  {
    "Lat":38.4225,
    "Lon":-113.00972,
    "Temp":77,
    "Station":"KMLF"
  },
  {
    "Lat":47.45417,
    "Lon":-115.66972,
    "Temp":62.96,
    "Station":"KMLP"
  },
  {
    "Lat":46.42806,
    "Lon":-105.88639,
    "Temp":73.04,
    "Station":"KMLS"
  },
  {
    "Lat":37.61667,
    "Lon":-118.83333,
    "Temp":73.4,
    "Station":"KMMH"
  },
  {
    "Lat":37.62417,
    "Lon":-120.95056,
    "Temp":98.96,
    "Station":"KMOD"
  },
  {
    "Lat":36.59056,
    "Lon":-121.8475,
    "Temp":62.96,
    "Station":"KMRY"
  },
  {
    "Lat":46.92083,
    "Lon":-114.0925,
    "Temp":77,
    "Station":"KMSO"
  },
  {
    "Lat":38.505,
    "Lon":-107.8975,
    "Temp":73.94,
    "Station":"KMTJ"
  },
  {
    "Lat":43.05,
    "Lon":-115.86667,
    "Temp":83.48,
    "Station":"KMUO"
  },
  {
    "Lat":47.19306,
    "Lon":-119.31333,
    "Temp":87.08,
    "Station":"KMWH"
  },
  {
    "Lat":32.81444,
    "Lon":-117.13639,
    "Temp":71.06,
    "Station":"KMYF"
  },
  {
    "Lat":44.89461,
    "Lon":-116.09987,
    "Temp":73.04,
    "Station":"KMYL"
  },
  {
    "Lat":39.09778,
    "Lon":-121.56972,
    "Temp":96.98,
    "Station":"KMYV"
  },
  {
    "Lat":33.30472,
    "Lon":-117.35389,
    "Temp":69.98,
    "Station":"KNFG"
  },
  {
    "Lat":39.43222,
    "Lon":-118.68556,
    "Temp":86,
    "Station":"KNFL"
  },
  {
    "Lat":35.68639,
    "Lon":-117.69,
    "Temp":96.98,
    "Station":"KNID"
  },
  {
    "Lat":32.825,
    "Lon":-115.66056,
    "Temp":96.08,
    "Station":"KNJK"
  },
  {
    "Lat":32.86833,
    "Lon":-117.1425,
    "Temp":73.04,
    "Station":"KNKX"
  },
  {
    "Lat":36.30361,
    "Lon":-119.93806,
    "Temp":98.06,
    "Station":"KNLC"
  },
  {
    "Lat":32.56306,
    "Lon":-117.11,
    "Temp":71.06,
    "Station":"KNRS"
  },
  {
    "Lat":34.12389,
    "Lon":-119.12167,
    "Temp":69.08,
    "Station":"KNTD"
  },
  {
    "Lat":37.40583,
    "Lon":-122.04806,
    "Temp":71.06,
    "Station":"KNUQ"
  },
  {
    "Lat":48.34917,
    "Lon":-122.65056,
    "Temp":69.98,
    "Station":"KNUW"
  },
  {
    "Lat":34.29444,
    "Lon":-116.145,
    "Temp":84.02,
    "Station":"KNXP"
  },
  {
    "Lat":32.65944,
    "Lon":-114.59306,
    "Temp":98.06,
    "Station":"KNYL"
  },
  {
    "Lat":32.69083,
    "Lon":-117.20889,
    "Temp":69.08,
    "Station":"KNZY"
  },
  {
    "Lat":37.7178,
    "Lon":-122.23294,
    "Temp":64.94,
    "Station":"KOAK"
  },
  {
    "Lat":33.21806,
    "Lon":-117.35139,
    "Temp":69.98,
    "Station":"KOKB"
  },
  {
    "Lat":48.09444,
    "Lon":-105.57722,
    "Temp":71.96,
    "Station":"KOLF"
  },
  {
    "Lat":46.97333,
    "Lon":-122.90333,
    "Temp":86,
    "Station":"KOLM"
  },
  {
    "Lat":31.42083,
    "Lon":-110.84583,
    "Temp":69.98,
    "Station":"KOLS"
  },
  {
    "Lat":44.01944,
    "Lon":-117.00972,
    "Temp":82.94,
    "Station":"KONO"
  },
  {
    "Lat":44.58028,
    "Lon":-124.05806,
    "Temp":60.8,
    "Station":"KONP"
  },
  {
    "Lat":34.05333,
    "Lon":-117.57583,
    "Temp":80.06,
    "Station":"KONT"
  },
  {
    "Lat":43.41667,
    "Lon":-124.25,
    "Temp":62.6,
    "Station":"KOTH"
  },
  {
    "Lat":39.49472,
    "Lon":-121.62028,
    "Temp":100.94,
    "Station":"KOVE"
  },
  {
    "Lat":34.20056,
    "Lon":-119.20306,
    "Temp":66.92,
    "Station":"KOXR"
  },
  {
    "Lat":44.54444,
    "Lon":-110.42111,
    "Temp":53.06,
    "Station":"KP60"
  },
  {
    "Lat":39.60139,
    "Lon":-116.00556,
    "Temp":75.92,
    "Station":"KP68"
  },
  {
    "Lat":46.14417,
    "Lon":-115.59639,
    "Temp":69.08,
    "Station":"KP69"
  },
  {
    "Lat":47.92331,
    "Lon":-122.28305,
    "Temp":75.02,
    "Station":"KPAE"
  },
  {
    "Lat":37.46667,
    "Lon":-122.11667,
    "Temp":69.8,
    "Station":"KPAO"
  },
  {
    "Lat":45.69833,
    "Lon":-118.83417,
    "Temp":84.92,
    "Station":"KPDT"
  },
  {
    "Lat":45.59578,
    "Lon":-122.60917,
    "Temp":89.96,
    "Station":"KPDX"
  },
  {
    "Lat":36.92056,
    "Lon":-111.44806,
    "Temp":91.04,
    "Station":"KPGA"
  },
  {
    "Lat":33.427799,
    "Lon":-112.003465,
    "Temp":91.94,
    "Station":"KPHX"
  },
  {
    "Lat":42.92028,
    "Lon":-112.57111,
    "Temp":71.96,
    "Station":"KPIH"
  },
  {
    "Lat":34.62972,
    "Lon":-118.08139,
    "Temp":84.02,
    "Station":"KPMD"
  },
  {
    "Lat":34.1,
    "Lon":-117.78333,
    "Temp":77,
    "Station":"KPOC"
  },
  {
    "Lat":35.67278,
    "Lon":-120.62694,
    "Temp":75.02,
    "Station":"KPRB"
  },
  {
    "Lat":34.64917,
    "Lon":-112.42222,
    "Temp":77,
    "Station":"KPRC"
  },
  {
    "Lat":46.26972,
    "Lon":-119.11667,
    "Temp":89.06,
    "Station":"KPSC"
  },
  {
    "Lat":33.82219,
    "Lon":-116.50431,
    "Temp":100.94,
    "Station":"KPSP"
  },
  {
    "Lat":36.03333,
    "Lon":-119.06667,
    "Temp":95,
    "Station":"KPTV"
  },
  {
    "Lat":38.29,
    "Lon":-104.49833,
    "Temp":78.08,
    "Station":"KPUB"
  },
  {
    "Lat":46.74377,
    "Lon":-117.11579,
    "Temp":82.04,
    "Station":"KPUW"
  },
  {
    "Lat":47.5,
    "Lon":-122.75,
    "Temp":80.6,
    "Station":"KPWT"
  },
  {
    "Lat":33.95139,
    "Lon":-117.45056,
    "Temp":80.06,
    "Station":"KRAL"
  },
  {
    "Lat":40.15056,
    "Lon":-122.25222,
    "Temp":102.92,
    "Station":"KRBL"
  },
  {
    "Lat":43.23389,
    "Lon":-123.35611,
    "Temp":96.98,
    "Station":"KRBG"
  },
  {
    "Lat":40.51461,
    "Lon":-122.2977,
    "Temp":102.02,
    "Station":"KRDD"
  },
  {
    "Lat":44.25417,
    "Lon":-121.14972,
    "Temp":84.02,
    "Station":"KRDM"
  },
  {
    "Lat":42.59056,
    "Lon":-117.86444,
    "Temp":86,
    "Station":"KREO"
  },
  {
    "Lat":37.33333,
    "Lon":-121.81667,
    "Temp":80.6,
    "Station":"KRHV"
  },
  {
    "Lat":39.525,
    "Lon":-107.72722,
    "Temp":77,
    "Station":"KRIL"
  },
  {
    "Lat":33.9,
    "Lon":-117.25,
    "Temp":83.12,
    "Station":"KRIV"
  },
  {
    "Lat":43.06194,
    "Lon":-108.44639,
    "Temp":71.06,
    "Station":"KRIW"
  },
  {
    "Lat":41.59417,
    "Lon":-109.06528,
    "Temp":69.98,
    "Station":"KRKS"
  },
  {
    "Lat":33.0375,
    "Lon":-116.91583,
    "Temp":73.04,
    "Station":"KRNM"
  },
  {
    "Lat":39.50776,
    "Lon":-119.76819,
    "Temp":89.06,
    "Station":"KRNO"
  },
  {
    "Lat":47.49444,
    "Lon":-122.21278,
    "Temp":82.94,
    "Station":"KRNT"
  },
  {
    "Lat":33.30806,
    "Lon":-104.50778,
    "Temp":82.94,
    "Station":"KROW"
  },
  {
    "Lat":36.741528,
    "Lon":-104.502183,
    "Temp":59,
    "Station":"KRTN"
  },
  {
    "Lat":41.80556,
    "Lon":-107.19972,
    "Temp":60.98,
    "Station":"KRWL"
  },
  {
    "Lat":43.83167,
    "Lon":-111.80611,
    "Temp":71.96,
    "Station":"KRXE"
  },
  {
    "Lat":45.94111,
    "Lon":-116.13257,
    "Temp":74.3,
    "Station":"KGIC"
  },
  {
    "Lat":38.50694,
    "Lon":-121.495,
    "Temp":96.08,
    "Station":"KSAC"
  },
  {
    "Lat":32.85722,
    "Lon":-109.63556,
    "Temp":77,
    "Station":"KSAD"
  },
  {
    "Lat":35.61056,
    "Lon":-106.095,
    "Temp":60.98,
    "Station":"KSAF"
  },
  {
    "Lat":32.73361,
    "Lon":-117.18306,
    "Temp":71.96,
    "Station":"KSAN"
  },
  {
    "Lat":34.42611,
    "Lon":-119.84361,
    "Temp":66.92,
    "Station":"KSBA"
  },
  {
    "Lat":34.09027,
    "Lon":-117.24705,
    "Temp":84.2,
    "Station":"KSBD"
  },
  {
    "Lat":35.23611,
    "Lon":-120.63611,
    "Temp":64.04,
    "Station":"KSBP"
  },
  {
    "Lat":40.5153,
    "Lon":-106.86767,
    "Temp":63.86,
    "Station":"KSBS"
  },
  {
    "Lat":37.88972,
    "Lon":-121.22361,
    "Temp":91.04,
    "Station":"KSCK"
  },
  {
    "Lat":34.74361,
    "Lon":-118.72444,
    "Temp":80.06,
    "Station":"KSDB"
  },
  {
    "Lat":33.62278,
    "Lon":-111.91056,
    "Temp":91.04,
    "Station":"KSDL"
  },
  {
    "Lat":32.57528,
    "Lon":-116.99306,
    "Temp":69.08,
    "Station":"KSDM"
  },
  {
    "Lat":47.44472,
    "Lon":-122.31361,
    "Temp":82.04,
    "Station":"KSEA"
  },
  {
    "Lat":32.82611,
    "Lon":-116.97222,
    "Temp":73.4,
    "Station":"KSEE"
  },
  {
    "Lat":47.68556,
    "Lon":-117.32028,
    "Temp":82.94,
    "Station":"KSFF"
  },
  {
    "Lat":37.61961,
    "Lon":-122.36558,
    "Temp":64.04,
    "Station":"KSFO"
  },
  {
    "Lat":37.0451,
    "Lon":-113.50561,
    "Temp":95,
    "Station":"KSGU"
  },
  {
    "Lat":47.23806,
    "Lon":-123.14083,
    "Temp":87.08,
    "Station":"KSHN"
  },
  {
    "Lat":44.76031,
    "Lon":-106.97411,
    "Temp":66.02,
    "Station":"KSHR"
  },
  {
    "Lat":41.78139,
    "Lon":-122.46806,
    "Temp":95,
    "Station":"KSIY"
  },
  {
    "Lat":37.35917,
    "Lon":-121.92417,
    "Temp":73.94,
    "Station":"KSJC"
  },
  {
    "Lat":34.51833,
    "Lon":-109.37917,
    "Temp":64.04,
    "Station":"KSJN"
  },
  {
    "Lat":47.61667,
    "Lon":-117.65,
    "Temp":79.88,
    "Station":"KSKA"
  },
  {
    "Lat":41.13753,
    "Lon":-106.57687,
    "Temp":60.62,
    "Station":"KSKL"
  },
  {
    "Lat":36.45,
    "Lon":-105.66667,
    "Temp":60.8,
    "Station":"KSKX"
  },
  {
    "Lat":44.90778,
    "Lon":-122.995,
    "Temp":93.92,
    "Station":"KSLE"
  },
  {
    "Lat":33.78333,
    "Lon":-118.05,
    "Temp":72.5,
    "Station":"KSLI"
  },
  {
    "Lat":38.70071,
    "Lon":-121.59479,
    "Temp":98.06,
    "Station":"KSMF"
  },
  {
    "Lat":45.11667,
    "Lon":-113.88333,
    "Temp":66.2,
    "Station":"KSMN"
  },
  {
    "Lat":34.01583,
    "Lon":-118.45139,
    "Temp":69.08,
    "Station":"KSMO"
  },
  {
    "Lat":34.89944,
    "Lon":-120.44861,
    "Temp":66.02,
    "Station":"KSMX"
  },
  {
    "Lat":33.68,
    "Lon":-117.86639,
    "Temp":71.96,
    "Station":"KSNA"
  },
  {
    "Lat":36.66361,
    "Lon":-121.60806,
    "Temp":62.96,
    "Station":"KSNS"
  },
  {
    "Lat":44.20861,
    "Lon":-114.93444,
    "Temp":64.04,
    "Station":"KSNT"
  },
  {
    "Lat":34.26528,
    "Lon":-110.00556,
    "Temp":59,
    "Station":"KSOW"
  },
  {
    "Lat":37.28333,
    "Lon":-102.61667,
    "Temp":69.98,
    "Station":"KSPD"
  },
  {
    "Lat":37.51667,
    "Lon":-122.25,
    "Temp":73.4,
    "Station":"KSQL"
  },
  {
    "Lat":38.5,
    "Lon":-122.81667,
    "Temp":66.02,
    "Station":"KSTS"
  },
  {
    "Lat":43.5,
    "Lon":-114.3,
    "Temp":64.4,
    "Station":"KSUN"
  },
  {
    "Lat":38.26667,
    "Lon":-121.95,
    "Temp":84.2,
    "Station":"KSUU"
  },
  {
    "Lat":32.63333,
    "Lon":-108.15,
    "Temp":68,
    "Station":"KSVC"
  },
  {
    "Lat":40.37569,
    "Lon":-120.57269,
    "Temp":86,
    "Station":"KSVE"
  },
  {
    "Lat":42.6,
    "Lon":-123.3656,
    "Temp":80.06,
    "Station":"KSXT"
  },
  {
    "Lat":37.26218,
    "Lon":-104.33184,
    "Temp":62.96,
    "Station":"KTAD"
  },
  {
    "Lat":35.18278,
    "Lon":-103.60306,
    "Temp":75.92,
    "Station":"KTCC"
  },
  {
    "Lat":47.15,
    "Lon":-122.48333,
    "Temp":82.94,
    "Station":"KTCM"
  },
  {
    "Lat":33.23667,
    "Lon":-107.26806,
    "Temp":73.04,
    "Station":"KTCS"
  },
  {
    "Lat":37.95389,
    "Lon":-107.90861,
    "Temp":65.12,
    "Station":"KTEX"
  },
  {
    "Lat":47.2675,
    "Lon":-122.57611,
    "Temp":80.96,
    "Station":"KTIW"
  },
  {
    "Lat":33.8,
    "Lon":-118.33333,
    "Temp":71.6,
    "Station":"KTOA"
  },
  {
    "Lat":38.06028,
    "Lon":-117.08722,
    "Temp":87.98,
    "Station":"KTPH"
  },
  {
    "Lat":39.31667,
    "Lon":-120.13333,
    "Temp":73.4,
    "Station":"KTRK"
  },
  {
    "Lat":33.62667,
    "Lon":-116.15944,
    "Temp":96.98,
    "Station":"KTRM"
  },
  {
    "Lat":45.55111,
    "Lon":-122.40889,
    "Temp":91.94,
    "Station":"KTTD"
  },
  {
    "Lat":32.13153,
    "Lon":-110.95635,
    "Temp":77,
    "Station":"KTUS"
  },
  {
    "Lat":38.89836,
    "Lon":-119.99615,
    "Temp":75.02,
    "Station":"KTVL"
  },
  {
    "Lat":42.47861,
    "Lon":-114.47611,
    "Temp":73.04,
    "Station":"KTWF"
  },
  {
    "Lat":45.24889,
    "Lon":-122.76556,
    "Temp":89.96,
    "Station":"KUAO"
  },
  {
    "Lat":47.9375,
    "Lon":-124.555,
    "Temp":69.98,
    "Station":"KUIL"
  },
  {
    "Lat":39.12583,
    "Lon":-123.20083,
    "Temp":91.94,
    "Station":"KUKI"
  },
  {
    "Lat":34.72944,
    "Lon":-120.57667,
    "Temp":62.6,
    "Station":"KVBG"
  },
  {
    "Lat":38.37778,
    "Lon":-121.9575,
    "Temp":98.96,
    "Station":"KVCB"
  },
  {
    "Lat":36.21205,
    "Lon":-115.19395,
    "Temp":93.92,
    "Station":"KVGT"
  },
  {
    "Lat":36.31667,
    "Lon":-119.4,
    "Temp":93.2,
    "Station":"KVIS"
  },
  {
    "Lat":34.2125,
    "Lon":-118.49083,
    "Temp":77,
    "Station":"KVNY"
  },
  {
    "Lat":45.62103,
    "Lon":-122.65419,
    "Temp":91.04,
    "Station":"KVUO"
  },
  {
    "Lat":41.41772,
    "Lon":-104.87502,
    "Temp":66.2,
    "Station":"KWTR"
  },
  {
    "Lat":34.74083,
    "Lon":-118.21889,
    "Temp":89.96,
    "Station":"KWJF"
  },
  {
    "Lat":40.90194,
    "Lon":-117.80722,
    "Temp":82.94,
    "Station":"KWMC"
  },
  {
    "Lat":43.96583,
    "Lon":-107.95083,
    "Temp":68,
    "Station":"KWRL"
  },
  {
    "Lat":46.56417,
    "Lon":-120.53361,
    "Temp":89.06,
    "Station":"KYKM"
  },
  {
    "Lat":40.1838,
    "Lon":-112.92166,
    "Temp":78.6,
    "Station":"DPG01"
  },
  {
    "Lat":40.04613,
    "Lon":-113.2081,
    "Temp":75,
    "Station":"DPG02"
  },
  {
    "Lat":40.20802,
    "Lon":-113.33857,
    "Temp":80.11,
    "Station":"DPG03"
  },
  {
    "Lat":40.04602,
    "Lon":-113.0455,
    "Temp":76.14,
    "Station":"DPG04"
  },
  {
    "Lat":40.15694,
    "Lon":-112.89368,
    "Temp":77.47,
    "Station":"DPG05"
  },
  {
    "Lat":40.11945,
    "Lon":-112.95425,
    "Temp":76.5,
    "Station":"DPG06"
  },
  {
    "Lat":40.2269,
    "Lon":-112.72527,
    "Temp":73.22,
    "Station":"DPG07"
  },
  {
    "Lat":40.19662,
    "Lon":-113.16707,
    "Temp":78.94,
    "Station":"DPG08"
  },
  {
    "Lat":40.24254,
    "Lon":-113.09303,
    "Temp":79.74,
    "Station":"DPG09"
  },
  {
    "Lat":40.18169,
    "Lon":-113.02175,
    "Temp":74.91,
    "Station":"DPG10"
  },
  {
    "Lat":40.10345,
    "Lon":-112.98039,
    "Temp":78.91,
    "Station":"DPG11"
  },
  {
    "Lat":40.09075,
    "Lon":-113.10964,
    "Temp":74.68,
    "Station":"DPG12"
  },
  {
    "Lat":40.1067,
    "Lon":-112.80815,
    "Temp":76.89,
    "Station":"DPG13"
  },
  {
    "Lat":40.35306,
    "Lon":-113.07644,
    "Temp":76.87,
    "Station":"DPG14"
  },
  {
    "Lat":40.34109,
    "Lon":-113.23533,
    "Temp":83.17,
    "Station":"DPG15"
  },
  {
    "Lat":40.36726,
    "Lon":-113.00444,
    "Temp":69.01,
    "Station":"DPG16"
  },
  {
    "Lat":40.72728,
    "Lon":-113.4691,
    "Temp":81.52,
    "Station":"DPG17"
  },
  {
    "Lat":40.11649,
    "Lon":-113.53336,
    "Temp":80.87,
    "Station":"DPG18"
  },
  {
    "Lat":39.90445,
    "Lon":-113.34412,
    "Temp":77.67,
    "Station":"DPG19"
  },
  {
    "Lat":39.94554,
    "Lon":-113.70153,
    "Temp":75.6,
    "Station":"DPG20"
  },
  {
    "Lat":40.47541,
    "Lon":-111.90479,
    "Temp":76.78,
    "Station":"UT7"
  },
  {
    "Lat":38.778594,
    "Lon":-111.316645,
    "Temp":71.13,
    "Station":"FRE"
  },
  {
    "Lat":38.864,
    "Lon":-110.81,
    "Temp":74.64,
    "Station":"GHO"
  },
  {
    "Lat":40.693,
    "Lon":-112.265,
    "Temp":74.55,
    "Station":"UT9"
  },
  {
    "Lat":40.7122,
    "Lon":-111.8019,
    "Temp":73.35,
    "Station":"UT5"
  },
  {
    "Lat":40.753,
    "Lon":-111.62499,
    "Temp":63.3,
    "Station":"UT3"
  },
  {
    "Lat":41.13745,
    "Lon":-111.8854,
    "Temp":68.76,
    "Station":"PWR"
  },
  {
    "Lat":41.217,
    "Lon":-111.799,
    "Temp":62.91,
    "Station":"TPR"
  },
  {
    "Lat":41.2,
    "Lon":-111.11,
    "Temp":61.23,
    "Station":"UT1"
  },
  {
    "Lat":41.585,
    "Lon":-111.975,
    "Temp":51.75,
    "Station":"SWH"
  },
  {
    "Lat":40.558,
    "Lon":-111.131,
    "Temp":50.92,
    "Station":"KMS"
  },
  {
    "Lat":42.95497,
    "Lon":-112.82455,
    "Temp":64.42,
    "Station":"ABE"
  },
  {
    "Lat":44.00753,
    "Lon":-112.23885,
    "Temp":63.52,
    "Station":"HAM"
  },
  {
    "Lat":43.62452,
    "Lon":-113.29709,
    "Temp":63.7,
    "Station":"ARC"
  },
  {
    "Lat":43.4437,
    "Lon":-112.8124,
    "Temp":63.88,
    "Station":"ATO"
  },
  {
    "Lat":44.0749,
    "Lon":-112.84208,
    "Temp":66.94,
    "Station":"BLU"
  },
  {
    "Lat":43.29409,
    "Lon":-113.18161,
    "Temp":69.46,
    "Station":"BIG"
  },
  {
    "Lat":43.54748,
    "Lon":-112.8697,
    "Temp":70.36,
    "Station":"PBF"
  },
  {
    "Lat":43.5326,
    "Lon":-112.94775,
    "Temp":72.34,
    "Station":"690"
  },
  {
    "Lat":43.42912,
    "Lon":-113.53826,
    "Temp":70.72,
    "Station":"CRA"
  },
  {
    "Lat":43.62487,
    "Lon":-113.05984,
    "Temp":71.44,
    "Station":"DEA"
  },
  {
    "Lat":44.24239,
    "Lon":-112.20181,
    "Temp":66.4,
    "Station":"DUB"
  },
  {
    "Lat":43.58461,
    "Lon":-112.96865,
    "Temp":71.62,
    "Station":"TRA"
  },
  {
    "Lat":43.59414,
    "Lon":-112.65171,
    "Temp":69.46,
    "Station":"EBR"
  },
  {
    "Lat":43.01983,
    "Lon":-112.41207,
    "Temp":68.2,
    "Station":"FOR"
  },
  {
    "Lat":43.78411,
    "Lon":-112.97736,
    "Temp":68.92,
    "Station":"HOW"
  },
  {
    "Lat":43.67756,
    "Lon":-113.00605,
    "Temp":72.16,
    "Station":"BAS"
  },
  {
    "Lat":43.50408,
    "Lon":-112.05012,
    "Temp":68.56,
    "Station":"IDA"
  },
  {
    "Lat":42.80451,
    "Lon":-113.58978,
    "Temp":62.08,
    "Station":"MIN"
  },
  {
    "Lat":43.54755,
    "Lon":-112.32632,
    "Temp":64.42,
    "Station":"KET"
  },
  {
    "Lat":43.54854,
    "Lon":-113.00846,
    "Temp":70,
    "Station":"LOS"
  },
  {
    "Lat":44.01538,
    "Lon":-112.53589,
    "Temp":65.68,
    "Station":"MON"
  },
  {
    "Lat":43.77963,
    "Lon":-112.75816,
    "Temp":71.98,
    "Station":"SAN"
  },
  {
    "Lat":43.64789,
    "Lon":-112.91119,
    "Temp":70.36,
    "Station":"NRF"
  },
  {
    "Lat":43.05841,
    "Lon":-114.13467,
    "Temp":73.6,
    "Station":"RIC"
  },
  {
    "Lat":43.58972,
    "Lon":-112.93986,
    "Temp":72.16,
    "Station":"GRI"
  },
  {
    "Lat":43.74221,
    "Lon":-112.12576,
    "Temp":66.22,
    "Station":"ROB"
  },
  {
    "Lat":43.72059,
    "Lon":-112.52956,
    "Temp":70,
    "Station":"ROV"
  },
  {
    "Lat":43.50336,
    "Lon":-113.04603,
    "Temp":73.06,
    "Station":"RWM"
  },
  {
    "Lat":43.89658,
    "Lon":-111.7376,
    "Temp":67.3,
    "Station":"SUG"
  },
  {
    "Lat":43.3187,
    "Lon":-112.69187,
    "Temp":66.4,
    "Station":"TAB"
  },
  {
    "Lat":43.85979,
    "Lon":-112.73026,
    "Temp":71.8,
    "Station":"LOF"
  },
  {
    "Lat":43.84165,
    "Lon":-112.4183,
    "Temp":68.56,
    "Station":"TER"
  },
  {
    "Lat":40.589,
    "Lon":-111.637,
    "Temp":53.91,
    "Station":"ATB"
  },
  {
    "Lat":40.5763,
    "Lon":-111.6383,
    "Temp":55,
    "Station":"CLN"
  },
  {
    "Lat":40.571,
    "Lon":-111.631,
    "Temp":56.3,
    "Station":"ALT"
  },
  {
    "Lat":40.40147,
    "Lon":-111.520649,
    "Temp":72.5,
    "Station":"DCC"
  },
  {
    "Lat":38.4566,
    "Lon":-109.2455,
    "Temp":54.39,
    "Station":"LSL"
  },
  {
    "Lat":41.2,
    "Lon":-111.881,
    "Temp":58.15,
    "Station":"OGP"
  },
  {
    "Lat":40.6135,
    "Lon":-111.5395,
    "Temp":51.21,
    "Station":"PKC"
  },
  {
    "Lat":41.2015,
    "Lon":-111.8635,
    "Temp":57.72,
    "Station":"SWI"
  },
  {
    "Lat":40.6083,
    "Lon":-111.6044,
    "Temp":84.6,
    "Station":"SOL"
  },
  {
    "Lat":40.368386,
    "Lon":-111.593964,
    "Temp":65.28,
    "Station":"SND"
  },
  {
    "Lat":40.374406,
    "Lon":-111.594479,
    "Temp":63.64,
    "Station":"SNM"
  },
  {
    "Lat":39.99004463,
    "Lon":-112.5436834,
    "Temp":57.58,
    "Station":"BCP"
  },
  {
    "Lat":40.68024496,
    "Lon":-112.4436659,
    "Temp":77.5,
    "Station":"URM"
  },
  {
    "Lat":40.60966451,
    "Lon":-112.3474783,
    "Temp":65.43,
    "Station":"POR"
  },
  {
    "Lat":40.17448725,
    "Lon":-112.4272788,
    "Temp":70.84,
    "Station":"FAU"
  },
  {
    "Lat":40.70452687,
    "Lon":-112.5296902,
    "Temp":78.6,
    "Station":"FLU"
  },
  {
    "Lat":40.58734462,
    "Lon":-112.4768841,
    "Temp":67.5,
    "Station":"GRS"
  },
  {
    "Lat":40.54568372,
    "Lon":-112.5121323,
    "Temp":66.51,
    "Station":"RES"
  },
  {
    "Lat":40.03472836,
    "Lon":-112.2860302,
    "Temp":70.65,
    "Station":"LOFUT"
  },
  {
    "Lat":40.45016492,
    "Lon":-112.475616,
    "Temp":65.95,
    "Station":"MTB"
  },
  {
    "Lat":40.35187911,
    "Lon":-112.3056037,
    "Temp":70.79,
    "Station":"OPH"
  },
  {
    "Lat":40.33748206,
    "Lon":-112.4604774,
    "Temp":70.43,
    "Station":"RVF"
  },
  {
    "Lat":40.45973156,
    "Lon":-112.4099938,
    "Temp":66.13,
    "Station":"SMT"
  },
  {
    "Lat":40.46491962,
    "Lon":-112.3654368,
    "Temp":68.59,
    "Station":"STO"
  },
  {
    "Lat":40.51435482,
    "Lon":-112.3125642,
    "Temp":70.65,
    "Station":"TOO"
  },
  {
    "Lat":40.13013379,
    "Lon":-112.3847432,
    "Temp":68.99,
    "Station":"VRH"
  },
  {
    "Lat":40.7335,
    "Lon":-111.8717,
    "Temp":78.98,
    "Station":"QHW"
  },
  {
    "Lat":40.3388,
    "Lon":-111.7133,
    "Temp":76.82,
    "Station":"QLN"
  },
  {
    "Lat":40.7035,
    "Lon":-112.0938,
    "Temp":75.2,
    "Station":"QMG"
  },
  {
    "Lat":40.2535,
    "Lon":-111.6632,
    "Temp":79.16,
    "Station":"QNP"
  },
  {
    "Lat":41.207,
    "Lon":-111.9752,
    "Temp":78.26,
    "Station":"QO2"
  },
  {
    "Lat":40.805981,
    "Lon":-112.049822,
    "Temp":78.48,
    "Station":"QSA"
  },
  {
    "Lat":36.801945,
    "Lon":-115.966248,
    "Temp":93.74,
    "Station":"A05"
  },
  {
    "Lat":37.15136,
    "Lon":-116.395615,
    "Temp":84.02,
    "Station":"A07"
  },
  {
    "Lat":37.135445,
    "Lon":-116.041527,
    "Temp":90.86,
    "Station":"A09"
  },
  {
    "Lat":37.185165,
    "Lon":-116.206886,
    "Temp":73.58,
    "Station":"A40"
  },
  {
    "Lat":36.847721,
    "Lon":-115.953392,
    "Temp":95,
    "Station":"A13"
  },
  {
    "Lat":36.967556,
    "Lon":-116.181358,
    "Temp":87.62,
    "Station":"A14"
  },
  {
    "Lat":37.062862,
    "Lon":-116.053719,
    "Temp":92.12,
    "Station":"A17"
  },
  {
    "Lat":37.104057,
    "Lon":-116.313782,
    "Temp":86,
    "Station":"A18"
  },
  {
    "Lat":36.656891,
    "Lon":-116.003029,
    "Temp":89.78,
    "Station":"A23"
  },
  {
    "Lat":36.853359,
    "Lon":-116.466408,
    "Temp":86.72,
    "Station":"A24"
  },
  {
    "Lat":36.784611,
    "Lon":-116.289749,
    "Temp":91.58,
    "Station":"A26"
  },
  {
    "Lat":36.893833,
    "Lon":-116.038887,
    "Temp":94.28,
    "Station":"A28"
  },
  {
    "Lat":37.003834,
    "Lon":-116.059807,
    "Temp":92.12,
    "Station":"A45"
  },
  {
    "Lat":37.096863,
    "Lon":-116.088417,
    "Temp":91.4,
    "Station":"A49"
  },
  {
    "Lat":44.025,
    "Lon":-111.46667,
    "Temp":62.01,
    "Station":"AHTI"
  },
  {
    "Lat":43.60028,
    "Lon":-116.17667,
    "Temp":76.01,
    "Station":"BOII"
  },
  {
    "Lat":43.30833,
    "Lon":-114.825,
    "Temp":66.96,
    "Station":"FAFI"
  },
  {
    "Lat":43.07139,
    "Lon":-112.43111,
    "Temp":68.56,
    "Station":"FTHI"
  },
  {
    "Lat":42.9125,
    "Lon":-116.05611,
    "Temp":77.2,
    "Station":"GDVI"
  },
  {
    "Lat":42.86667,
    "Lon":-115.35694,
    "Temp":80.6,
    "Station":"GFRI"
  },
  {
    "Lat":42.4375,
    "Lon":-113.41389,
    "Temp":65.16,
    "Station":"MALI"
  },
  {
    "Lat":43.44167,
    "Lon":-116.63694,
    "Temp":73.24,
    "Station":"NMPI"
  },
  {
    "Lat":43.31167,
    "Lon":-114.16583,
    "Temp":71.17,
    "Station":"PICI"
  },
  {
    "Lat":43.8,
    "Lon":-116.93333,
    "Temp":76.23,
    "Station":"PMAI"
  },
  {
    "Lat":42.595,
    "Lon":-113.83806,
    "Temp":67.96,
    "Station":"RPTI"
  },
  {
    "Lat":43.85,
    "Lon":-111.76667,
    "Temp":58.87,
    "Station":"RXGI"
  },
  {
    "Lat":42.54611,
    "Lon":-114.34528,
    "Temp":67.39,
    "Station":"TWFI"
  },
  {
    "Lat":42.73333,
    "Lon":-110.93583,
    "Temp":68.52,
    "Station":"AFTY"
  },
  {
    "Lat":46.33333,
    "Lon":-114.08333,
    "Temp":71.98,
    "Station":"COVM"
  },
  {
    "Lat":48.1875,
    "Lon":-114.12778,
    "Temp":73.65,
    "Station":"CRSM"
  },
  {
    "Lat":46.33556,
    "Lon":-112.76667,
    "Temp":67.05,
    "Station":"DRLM"
  },
  {
    "Lat":47.53944,
    "Lon":-114.28056,
    "Temp":73.81,
    "Station":"RDBM"
  },
  {
    "Lat":47.31333,
    "Lon":-114.09806,
    "Temp":71.91,
    "Station":"SIGM"
  },
  {
    "Lat":45.71861,
    "Lon":-119.31111,
    "Temp":87.4,
    "Station":"ECHO"
  },
  {
    "Lat":45.82111,
    "Lon":-119.52139,
    "Temp":78.91,
    "Station":"HERO"
  },
  {
    "Lat":45.81944,
    "Lon":-119.28333,
    "Temp":87.01,
    "Station":"HRMO"
  },
  {
    "Lat":44.48806,
    "Lon":-118.02,
    "Temp":79.95,
    "Station":"HRFO"
  },
  {
    "Lat":45.43333,
    "Lon":-117.96667,
    "Temp":73.71,
    "Station":"IMBO"
  },
  {
    "Lat":43.97778,
    "Lon":-117.01528,
    "Temp":83.19,
    "Station":"ONTO"
  },
  {
    "Lat":44.44083,
    "Lon":-118.62778,
    "Temp":71.19,
    "Station":"PCYO"
  },
  {
    "Lat":47.04389,
    "Lon":-119.64222,
    "Temp":81.19,
    "Station":"GERW"
  },
  {
    "Lat":46.20528,
    "Lon":-118.93611,
    "Temp":79.48,
    "Station":"LEGW"
  },
  {
    "Lat":46.86722,
    "Lon":-118.73944,
    "Temp":85.1,
    "Station":"LIDW"
  },
  {
    "Lat":47.30889,
    "Lon":-118.87861,
    "Temp":81.19,
    "Station":"ODSW"
  },
  {
    "Lat":48.4025,
    "Lon":-119.57611,
    "Temp":76.33,
    "Station":"OMAW"
  },
  {
    "Lat":45.28194,
    "Lon":-122.75028,
    "Temp":91.29,
    "Station":"ARAO"
  },
  {
    "Lat":43.09111,
    "Lon":-124.41722,
    "Temp":63.7,
    "Station":"BANO"
  },
  {
    "Lat":42.03,
    "Lon":-124.24083,
    "Temp":65.05,
    "Station":"BRKO"
  },
  {
    "Lat":41.58528,
    "Lon":-120.17139,
    "Temp":73.81,
    "Station":"CEDC"
  },
  {
    "Lat":43.24139,
    "Lon":-120.72806,
    "Temp":78.01,
    "Station":"CHVO"
  },
  {
    "Lat":44.63417,
    "Lon":-123.19,
    "Temp":92.3,
    "Station":"CRVO"
  },
  {
    "Lat":45.58639,
    "Lon":-121.64056,
    "Temp":80.71,
    "Station":"DEFO"
  },
  {
    "Lat":45.55306,
    "Lon":-123.08361,
    "Temp":87.21,
    "Station":"FOGO"
  },
  {
    "Lat":45.81194,
    "Lon":-120.82444,
    "Temp":87.01,
    "Station":"GOLW"
  },
  {
    "Lat":45.68444,
    "Lon":-121.51806,
    "Temp":84.7,
    "Station":"HOXO"
  },
  {
    "Lat":46.38472,
    "Lon":-120.57444,
    "Temp":85.1,
    "Station":"HRHW"
  },
  {
    "Lat":42.12222,
    "Lon":-120.52306,
    "Temp":79.77,
    "Station":"LAKO"
  },
  {
    "Lat":47.91694,
    "Lon":-120.12444,
    "Temp":80.4,
    "Station":"MASW"
  },
  {
    "Lat":42.33111,
    "Lon":-122.93778,
    "Temp":91.6,
    "Station":"MDFO"
  },
  {
    "Lat":44.68,
    "Lon":-121.14861,
    "Temp":84,
    "Station":"MRSO"
  },
  {
    "Lat":45.54444,
    "Lon":-121.61667,
    "Temp":79.5,
    "Station":"PARO"
  },
  {
    "Lat":45.65222,
    "Lon":-121.50917,
    "Temp":81,
    "Station":"PNGO"
  },
  {
    "Lat":44.24833,
    "Lon":-120.94972,
    "Temp":83.1,
    "Station":"POBO"
  },
  {
    "Lat":45.67361,
    "Lon":-111.15,
    "Temp":64.54,
    "Station":"BOZM"
  },
  {
    "Lat":47.65833,
    "Lon":-111.8125,
    "Temp":62.71,
    "Station":"GFMT"
  },
  {
    "Lat":46.67917,
    "Lon":-111.98333,
    "Temp":66.51,
    "Station":"HVMT"
  },
  {
    "Lat":46.12222,
    "Lon":-111.49472,
    "Temp":61.38,
    "Station":"TOSM"
  },
  {
    "Lat":46.98778,
    "Lon":-104.80306,
    "Temp":63.3,
    "Station":"BRGM"
  },
  {
    "Lat":46.77806,
    "Lon":-105.29944,
    "Temp":67.77,
    "Station":"BRTM"
  },
  {
    "Lat":48.675,
    "Lon":-112.58889,
    "Temp":70.65,
    "Station":"BFAM"
  },
  {
    "Lat":45.33333,
    "Lon":-112.50917,
    "Temp":58.19,
    "Station":"DLNM"
  },
  {
    "Lat":48.14333,
    "Lon":-106.60917,
    "Temp":66.54,
    "Station":"GLGM"
  },
  {
    "Lat":48.54333,
    "Lon":-108.83472,
    "Temp":67.41,
    "Station":"HRLM"
  },
  {
    "Lat":48.37361,
    "Lon":-107.77639,
    "Temp":64.74,
    "Station":"MATM"
  },
  {
    "Lat":45.345,
    "Lon":-112.15028,
    "Temp":64.74,
    "Station":"RBYM"
  },
  {
    "Lat":45.64778,
    "Lon":-68.69194,
    "Temp":66.02,
    "Station":"KMLT"
  },
  {
    "Lat":45.02839,
    "Lon":-107.31729,
    "Temp":72.1,
    "Station":"MTABR"
  },
  {
    "Lat":45.00275,
    "Lon":-104.37362,
    "Temp":67.5,
    "Station":"MTALZ"
  },
  {
    "Lat":45.78,
    "Lon":-108.16341,
    "Temp":67.8,
    "Station":"MTARC"
  },
  {
    "Lat":46.3233,
    "Lon":-112.06891,
    "Temp":63,
    "Station":"MTBOU"
  },
  {
    "Lat":47.2922,
    "Lon":-112.15183,
    "Temp":68.4,
    "Station":"MTBOW"
  },
  {
    "Lat":46.71854,
    "Lon":-113.29534,
    "Temp":70.3,
    "Station":"MTBRM"
  },
  {
    "Lat":48.45265,
    "Lon":-113.19507,
    "Temp":65.8,
    "Station":"MTBRN"
  },
  {
    "Lat":46.24744,
    "Lon":-108.46121,
    "Temp":71.6,
    "Station":"MTBUL"
  },
  {
    "Lat":47.02198,
    "Lon":-104.33,
    "Temp":67.3,
    "Station":"MTBVR"
  },
  {
    "Lat":45.66682,
    "Lon":-110.80395,
    "Temp":61.7,
    "Station":"MTBZH"
  },
  {
    "Lat":48.81,
    "Lon":-104.2529,
    "Temp":64,
    "Station":"MTCOM"
  },
  {
    "Lat":47.68837,
    "Lon":-105.49186,
    "Temp":63.5,
    "Station":"MTCOW"
  },
  {
    "Lat":48.1176,
    "Lon":-115.42004,
    "Temp":67.5,
    "Station":"MTCRY"
  },
  {
    "Lat":47.30023,
    "Lon":-109.85117,
    "Temp":63.5,
    "Station":"MTDEN"
  },
  {
    "Lat":48.69453,
    "Lon":-114.78437,
    "Temp":71.2,
    "Station":"MTDKY"
  },
  {
    "Lat":45.68554,
    "Lon":-110.50445,
    "Temp":70,
    "Station":"MTELV"
  },
  {
    "Lat":46.08359,
    "Lon":-104.43552,
    "Temp":59,
    "Station":"MTEKA"
  },
  {
    "Lat":48.28176,
    "Lon":-113.60657,
    "Temp":68.2,
    "Station":"MTESX"
  },
  {
    "Lat":48.21908,
    "Lon":-114.23793,
    "Temp":78.3,
    "Station":"MTFLT"
  },
  {
    "Lat":46.52361,
    "Lon":-112.80843,
    "Temp":71.1,
    "Station":"MTGAR"
  },
  {
    "Lat":46.9028,
    "Lon":-113.42299,
    "Temp":66.7,
    "Station":"MTGRN"
  },
  {
    "Lat":47.91928,
    "Lon":-108.72611,
    "Temp":73.6,
    "Station":"MTHAY"
  },
  {
    "Lat":46.8337,
    "Lon":-106.27133,
    "Temp":73.2,
    "Station":"MTHIL"
  },
  {
    "Lat":46.96826,
    "Lon":-112.97487,
    "Temp":66.9,
    "Station":"MTHLM"
  },
  {
    "Lat":46.16492,
    "Lon":-107.30927,
    "Temp":74.1,
    "Station":"MTHYH"
  },
  {
    "Lat":46.68765,
    "Lon":-109.75021,
    "Temp":66,
    "Station":"MTJUD"
  },
  {
    "Lat":45.34534,
    "Lon":-111.17261,
    "Temp":55.2,
    "Station":"MTKAR"
  },
  {
    "Lat":45.62886,
    "Lon":-106.51125,
    "Temp":69.1,
    "Station":"MTLAM"
  },
  {
    "Lat":47.28294,
    "Lon":-105.29387,
    "Temp":60.8,
    "Station":"MTLND"
  },
  {
    "Lat":47.95103,
    "Lon":-110.50477,
    "Temp":76.5,
    "Station":"MTLOM"
  },
  {
    "Lat":47.45357,
    "Lon":-115.69506,
    "Temp":66.7,
    "Station":"MTLPS"
  },
  {
    "Lat":47.07813,
    "Lon":-107.57201,
    "Temp":68.9,
    "Station":"MTLUF"
  },
  {
    "Lat":47.96113,
    "Lon":-108.30555,
    "Temp":69.1,
    "Station":"MTMAL"
  },
  {
    "Lat":48.42732,
    "Lon":-105.44234,
    "Temp":65.8,
    "Station":"MTMCD"
  },
  {
    "Lat":46.56148,
    "Lon":-112.30931,
    "Temp":63,
    "Station":"MTMDP"
  },
  {
    "Lat":47.02299,
    "Lon":-114.38868,
    "Temp":75.4,
    "Station":"MTNNM"
  },
  {
    "Lat":47.1429,
    "Lon":-110.82309,
    "Temp":59.4,
    "Station":"MTMON"
  },
  {
    "Lat":44.55767,
    "Lon":-112.3137,
    "Temp":60.6,
    "Station":"MTMQM"
  },
  {
    "Lat":45.4996,
    "Lon":-111.69618,
    "Temp":68.2,
    "Station":"MTNOR"
  },
  {
    "Lat":47.82,
    "Lon":-115.58,
    "Temp":75.2,
    "Station":"MTTRC"
  },
  {
    "Lat":48.07322,
    "Lon":-112.33418,
    "Temp":68.4,
    "Station":"MTPND"
  },
  {
    "Lat":44.72814,
    "Lon":-111.47012,
    "Temp":55.2,
    "Station":"MTRAY"
  },
  {
    "Lat":45.71006,
    "Lon":-109.5783,
    "Temp":69.8,
    "Station":"MTRDP"
  },
  {
    "Lat":48.81161,
    "Lon":-105.06078,
    "Temp":62.6,
    "Station":"MTRED"
  },
  {
    "Lat":45.33858,
    "Lon":-109.49362,
    "Temp":66,
    "Station":"MTROH"
  },
  {
    "Lat":47.91973,
    "Lon":-104.32619,
    "Temp":69.8,
    "Station":"MTSOO"
  },
  {
    "Lat":48.13764,
    "Lon":-104.04687,
    "Temp":70.2,
    "Station":"MTSTA"
  },
  {
    "Lat":46.26671,
    "Lon":-106.30788,
    "Temp":73.4,
    "Station":"MTSWC"
  },
  {
    "Lat":47.59103,
    "Lon":-113.75574,
    "Temp":68.9,
    "Station":"MTSWN"
  },
  {
    "Lat":48.5834,
    "Lon":-115.98406,
    "Temp":78.4,
    "Station":"MTYAK"
  },
  {
    "Lat":47.13948,
    "Lon":-111.85908,
    "Temp":72.3,
    "Station":"MTYEP"
  },
  {
    "Lat":45.79376,
    "Lon":-108.46799,
    "Temp":76.6,
    "Station":"MTYRB"
  },
  {
    "Lat":41.59806,
    "Lon":-106.21487,
    "Temp":61.16,
    "Station":"KARL"
  },
  {
    "Lat":43.9325,
    "Lon":-105.4467,
    "Temp":59.72,
    "Station":"KBFU"
  },
  {
    "Lat":41.64599,
    "Lon":-108.5836,
    "Temp":66.74,
    "Station":"KBIT"
  },
  {
    "Lat":41.93066,
    "Lon":-104.9436,
    "Temp":72.68,
    "Station":"KBRX"
  },
  {
    "Lat":42.58565,
    "Lon":-108.28199,
    "Temp":64.58,
    "Station":"KBVR"
  },
  {
    "Lat":41.54958,
    "Lon":-109.60197,
    "Temp":67.28,
    "Station":"KCMS"
  },
  {
    "Lat":41.71586,
    "Lon":-107.78256,
    "Temp":69.98,
    "Station":"KCTD"
  },
  {
    "Lat":44.21906,
    "Lon":-106.10477,
    "Temp":69.44,
    "Station":"KDHS"
  },
  {
    "Lat":42.83687,
    "Lon":-105.86063,
    "Temp":62.78,
    "Station":"KDRC"
  },
  {
    "Lat":41.27649,
    "Lon":-110.80067,
    "Temp":61.52,
    "Station":"KFIR"
  },
  {
    "Lat":43.0923,
    "Lon":-107.32198,
    "Temp":62.24,
    "Station":"KHLD"
  },
  {
    "Lat":43.89864,
    "Lon":-106.63833,
    "Temp":66.74,
    "Station":"KIDV"
  },
  {
    "Lat":44.29414,
    "Lon":-104.62926,
    "Temp":60.98,
    "Station":"KIKA"
  },
  {
    "Lat":44.27011,
    "Lon":-108.87343,
    "Temp":64.58,
    "Station":"KMTR"
  },
  {
    "Lat":42.55811,
    "Lon":-106.84534,
    "Temp":65.48,
    "Station":"KPAT"
  },
  {
    "Lat":44.53356,
    "Lon":-106.80509,
    "Temp":60.98,
    "Station":"KPIN"
  },
  {
    "Lat":41.05218,
    "Lon":-105.4691,
    "Temp":60.62,
    "Station":"KPUM"
  },
  {
    "Lat":43.12271,
    "Lon":-106.33705,
    "Temp":66.2,
    "Station":"KTMH"
  },
  {
    "Lat":42.0645,
    "Lon":-104.1527,
    "Temp":71.96,
    "Station":"KTOR"
  },
  {
    "Lat":41.27306,
    "Lon":-111.03056,
    "Temp":64.94,
    "Station":"KEVW"
  },
  {
    "Lat":44.5174,
    "Lon":-108.0752,
    "Temp":75.92,
    "Station":"KGEY"
  },
  {
    "Lat":41.15688,
    "Lon":-105.40237,
    "Temp":58.64,
    "Station":"KVDW"
  },
  {
    "Lat":33.87,
    "Lon":-111.85,
    "Temp":81,
    "Station":"MACR"
  },
  {
    "Lat":33.32,
    "Lon":-111.74,
    "Temp":86,
    "Station":"MACP"
  },
  {
    "Lat":33.42,
    "Lon":-112.12,
    "Temp":91.99,
    "Station":"MADC"
  },
  {
    "Lat":33.27,
    "Lon":-112.32,
    "Temp":95,
    "Station":"MAEF"
  },
  {
    "Lat":33.6111,
    "Lon":-111.7251,
    "Temp":82.99,
    "Station":"MAFH"
  },
  {
    "Lat":33.24,
    "Lon":-113.2,
    "Temp":93,
    "Station":"MAGB"
  },
  {
    "Lat":34.14,
    "Lon":-112.27,
    "Temp":70,
    "Station":"MAHB"
  },
  {
    "Lat":33.97,
    "Lon":-111.79,
    "Temp":70,
    "Station":"MAHM"
  },
  {
    "Lat":33.48511,
    "Lon":-111.94267,
    "Temp":89.01,
    "Station":"MAIS"
  },
  {
    "Lat":33.12,
    "Lon":-111.4,
    "Temp":84,
    "Station":"MAMF"
  },
  {
    "Lat":34.41,
    "Lon":-112.41,
    "Temp":66,
    "Station":"MAMU"
  },
  {
    "Lat":33.72,
    "Lon":-111.89,
    "Temp":86,
    "Station":"MAPJ"
  },
  {
    "Lat":33.58,
    "Lon":-111.54,
    "Temp":81,
    "Station":"MAGU"
  },
  {
    "Lat":33.31,
    "Lon":-112.14,
    "Temp":93.99,
    "Station":"MASF"
  },
  {
    "Lat":33.34,
    "Lon":-112.03,
    "Temp":88,
    "Station":"MASP"
  },
  {
    "Lat":33.64,
    "Lon":-111.82,
    "Temp":71.01,
    "Station":"MATP"
  },
  {
    "Lat":33.67,
    "Lon":-113.31,
    "Temp":95,
    "Station":"MATW"
  },
  {
    "Lat":33.48,
    "Lon":-111.61,
    "Temp":88,
    "Station":"MAUP"
  },
  {
    "Lat":33.97,
    "Lon":-112.8,
    "Temp":91,
    "Station":"MAWA"
  },
  {
    "Lat":38.99914,
    "Lon":-119.77986,
    "Temp":78.01,
    "Station":"MNDNV"
  },
  {
    "Lat":39.60408,
    "Lon":-119.84139,
    "Temp":84,
    "Station":"BLCNV"
  },
  {
    "Lat":38.88703,
    "Lon":-119.72225,
    "Temp":105.01,
    "Station":"GLVNV"
  },
  {
    "Lat":38.72778,
    "Lon":-119.55544,
    "Temp":81,
    "Station":"HBKNV"
  },
  {
    "Lat":38.96075,
    "Lon":-119.84686,
    "Temp":82,
    "Station":"KBYNV"
  },
  {
    "Lat":39.56858,
    "Lon":-119.52592,
    "Temp":91,
    "Station":"TCYNV"
  },
  {
    "Lat":39.25297,
    "Lon":-119.97103,
    "Temp":73,
    "Station":"ICNNV"
  },
  {
    "Lat":39.28325,
    "Lon":-119.93575,
    "Temp":71.01,
    "Station":"DXCNV"
  },
  {
    "Lat":39.31158,
    "Lon":-119.89936,
    "Temp":68,
    "Station":"RSMNV"
  },
  {
    "Lat":39.33769,
    "Lon":-119.86158,
    "Temp":70,
    "Station":"XMSNV"
  },
  {
    "Lat":39.44994,
    "Lon":-119.77659,
    "Temp":91,
    "Station":"IEINV"
  },
  {
    "Lat":39.27381,
    "Lon":-119.81881,
    "Temp":84.99,
    "Station":"WASNV"
  },
  {
    "Lat":39.23019,
    "Lon":-120.00325,
    "Temp":72,
    "Station":"CRLNV"
  },
  {
    "Lat":39.19464,
    "Lon":-119.92658,
    "Temp":77,
    "Station":"SANNV"
  },
  {
    "Lat":39.14186,
    "Lon":-119.92492,
    "Temp":75.99,
    "Station":"SECNV"
  },
  {
    "Lat":39.10381,
    "Lon":-119.89631,
    "Temp":69.01,
    "Station":"SPRNV"
  },
  {
    "Lat":39.08881,
    "Lon":-119.91131,
    "Temp":75.99,
    "Station":"GLNNV"
  },
  {
    "Lat":39.04797,
    "Lon":-119.94631,
    "Temp":73.99,
    "Station":"CVRNV"
  },
  {
    "Lat":39.00214,
    "Lon":-119.94936,
    "Temp":84,
    "Station":"ZEPNV"
  },
  {
    "Lat":38.97019,
    "Lon":-119.93492,
    "Temp":75,
    "Station":"KAHNV"
  },
  {
    "Lat":39.11936,
    "Lon":-119.77489,
    "Temp":84.99,
    "Station":"JCTNV"
  },
  {
    "Lat":40.84472,
    "Lon":-110.66,
    "Temp":45.86,
    "Station":"WFBU1"
  },
  {
    "Lat":39.26833,
    "Lon":-111.37028,
    "Temp":59.47,
    "Station":"GLUU1"
  },
  {
    "Lat":40.08889,
    "Lon":-108.7725,
    "Temp":74.61,
    "Station":"RNGC2"
  },
  {
    "Lat":40.95889,
    "Lon":-110.58222,
    "Temp":50,
    "Station":"BFUU1"
  },
  {
    "Lat":40.9,
    "Lon":-110.87722,
    "Temp":47.66,
    "Station":"EFKU1"
  },
  {
    "Lat":36.84,
    "Lon":-114.06,
    "Temp":99,
    "Station":"MSQN2"
  },
  {
    "Lat":36.48,
    "Lon":-114.71,
    "Temp":93.99,
    "Station":"CLFN2"
  },
  {
    "Lat":36.66,
    "Lon":-114.42,
    "Temp":99,
    "Station":"MMTN2"
  },
  {
    "Lat":36.46,
    "Lon":-114.5,
    "Temp":98.01,
    "Station":"SLCN2"
  },
  {
    "Lat":36.57,
    "Lon":-114.44,
    "Temp":100,
    "Station":"OVRN2"
  },
  {
    "Lat":36.17,
    "Lon":-115.31,
    "Temp":93,
    "Station":"APWN2"
  },
  {
    "Lat":36.17,
    "Lon":-115.14,
    "Temp":93.99,
    "Station":"RFCN2"
  },
  {
    "Lat":36.05,
    "Lon":-115,
    "Temp":96.01,
    "Station":"TIMN2"
  },
  {
    "Lat":35.81,
    "Lon":-115.47,
    "Temp":80.01,
    "Station":"GDSN2"
  },
  {
    "Lat":35.77,
    "Lon":-115.33,
    "Temp":81,
    "Station":"JEAN2"
  },
  {
    "Lat":35.32,
    "Lon":-114.8,
    "Temp":89.01,
    "Station":"CNAN2"
  },
  {
    "Lat":40.651667,
    "Lon":-111.051944,
    "Temp":57.99,
    "Station":"NWRU1"
  },
  {
    "Lat":33.082028,
    "Lon":-109.951194,
    "Temp":73,
    "Station":"QBHA3"
  },
  {
    "Lat":36.794361,
    "Lon":-113.750556,
    "Temp":71.01,
    "Station":"QBRA3"
  },
  {
    "Lat":36.204722,
    "Lon":-112.062222,
    "Temp":70,
    "Station":"QBAA3"
  },
  {
    "Lat":36.918056,
    "Lon":-112.199722,
    "Temp":77,
    "Station":"QBMA3"
  },
  {
    "Lat":34.596667,
    "Lon":-112.047778,
    "Temp":75,
    "Station":"CHEA3"
  },
  {
    "Lat":32.703889,
    "Lon":-109.913889,
    "Temp":54,
    "Station":"QCGA3"
  },
  {
    "Lat":34.203333,
    "Lon":-112.345556,
    "Temp":75,
    "Station":"QCKA3"
  },
  {
    "Lat":33.359822,
    "Lon":-109.833061,
    "Temp":57,
    "Station":"QDLA3"
  },
  {
    "Lat":36.453083,
    "Lon":-112.23825,
    "Temp":63,
    "Station":"QDPA3"
  },
  {
    "Lat":31.783472,
    "Lon":-110.64325,
    "Temp":66.99,
    "Station":"QEMA3"
  },
  {
    "Lat":36.793611,
    "Lon":-112.0425,
    "Temp":78.01,
    "Station":"QFSA3"
  },
  {
    "Lat":34.757611,
    "Lon":-113.296972,
    "Temp":82,
    "Station":"QGDA3"
  },
  {
    "Lat":34.058528,
    "Lon":-109.440972,
    "Temp":55,
    "Station":"QGRA3"
  },
  {
    "Lat":36.704444,
    "Lon":-112.583333,
    "Temp":84,
    "Station":"QGSA3"
  },
  {
    "Lat":32.882028,
    "Lon":-109.309278,
    "Temp":66,
    "Station":"QGTA3"
  },
  {
    "Lat":34.807583,
    "Lon":-114.534556,
    "Temp":93,
    "Station":"QHAA3"
  },
  {
    "Lat":32.006111,
    "Lon":-109.356944,
    "Temp":64.99,
    "Station":"QCHA3"
  },
  {
    "Lat":32.936556,
    "Lon":-110.493472,
    "Temp":71.01,
    "Station":"QHRA3"
  },
  {
    "Lat":34.11,
    "Lon":-112.3,
    "Temp":71.01,
    "Station":"QHBA3"
  },
  {
    "Lat":36.699083,
    "Lon":-113.207306,
    "Temp":82.99,
    "Station":"QHUA3"
  },
  {
    "Lat":46.638236,
    "Lon":-110.185378,
    "Temp":69.01,
    "Station":"TR588"
  },
  {
    "Lat":34.177856,
    "Lon":-110.276633,
    "Temp":57.99,
    "Station":"QLCA3"
  },
  {
    "Lat":36.285556,
    "Lon":-112.078611,
    "Temp":61,
    "Station":"QLBA3"
  },
  {
    "Lat":35.033972,
    "Lon":-113.894056,
    "Temp":72,
    "Station":"QMBA3"
  },
  {
    "Lat":36.353056,
    "Lon":-113.199167,
    "Temp":72,
    "Station":"QMLA3"
  },
  {
    "Lat":32.403833,
    "Lon":-110.271944,
    "Temp":66.99,
    "Station":"QMRA3"
  },
  {
    "Lat":35.614972,
    "Lon":-113.794278,
    "Temp":80.01,
    "Station":"QMMA3"
  },
  {
    "Lat":34.941667,
    "Lon":-111.751667,
    "Temp":73,
    "Station":"QOCA3"
  },
  {
    "Lat":36.507222,
    "Lon":-113.816111,
    "Temp":93,
    "Station":"QOKA3"
  },
  {
    "Lat":36.727778,
    "Lon":-111.821972,
    "Temp":75.99,
    "Station":"QPPA3"
  },
  {
    "Lat":34.239167,
    "Lon":-111.302778,
    "Temp":68,
    "Station":"QPAA3"
  },
  {
    "Lat":34.088333,
    "Lon":-110.942222,
    "Temp":64.99,
    "Station":"QPVA3"
  },
  {
    "Lat":34.365278,
    "Lon":-111.014444,
    "Temp":57.99,
    "Station":"QPRA3"
  },
  {
    "Lat":32.206389,
    "Lon":-110.548611,
    "Temp":54,
    "Station":"QHVA3"
  },
  {
    "Lat":33.868611,
    "Lon":-111.313333,
    "Temp":73.99,
    "Station":"TTBA3"
  },
  {
    "Lat":31.691694,
    "Lon":-111.448111,
    "Temp":80.01,
    "Station":"QSBA3"
  },
  {
    "Lat":34.114861,
    "Lon":-113.347333,
    "Temp":89.01,
    "Station":"QHQA3"
  },
  {
    "Lat":34.164028,
    "Lon":-112.734861,
    "Temp":84,
    "Station":"QSTA3"
  },
  {
    "Lat":34.188472,
    "Lon":-112.134667,
    "Temp":82.99,
    "Station":"QSPA3"
  },
  {
    "Lat":33.264778,
    "Lon":-109.367833,
    "Temp":62.01,
    "Station":"QTCA3"
  },
  {
    "Lat":36.581944,
    "Lon":-113.731944,
    "Temp":82,
    "Station":"QTWA3"
  },
  {
    "Lat":35.232333,
    "Lon":-114.381944,
    "Temp":87.01,
    "Station":"QUPA3"
  },
  {
    "Lat":34.549167,
    "Lon":-111.844167,
    "Temp":77,
    "Station":"QVDA3"
  },
  {
    "Lat":36.701167,
    "Lon":-112.226889,
    "Temp":69.01,
    "Station":"QWSA3"
  },
  {
    "Lat":36.155,
    "Lon":-113.549444,
    "Temp":75,
    "Station":"QYJA3"
  },
  {
    "Lat":34.446389,
    "Lon":-118.1968,
    "Temp":91.99,
    "Station":"ATNC1"
  },
  {
    "Lat":40.186017,
    "Lon":-123.591061,
    "Temp":91,
    "Station":"ALDC1"
  },
  {
    "Lat":39.651617,
    "Lon":-122.724533,
    "Temp":80.01,
    "Station":"ECKC1"
  },
  {
    "Lat":33.555864,
    "Lon":-116.674542,
    "Temp":73,
    "Station":"NZAC1"
  },
  {
    "Lat":35.179147,
    "Lon":-120.392719,
    "Temp":72,
    "Station":"ARGC1"
  },
  {
    "Lat":36.235481,
    "Lon":-121.479881,
    "Temp":73.99,
    "Station":"ASRC1"
  },
  {
    "Lat":41.276808,
    "Lon":-121.980569,
    "Temp":80.01,
    "Station":"MCCC1"
  },
  {
    "Lat":38.904167,
    "Lon":-120.705222,
    "Temp":88,
    "Station":"BDMC1"
  },
  {
    "Lat":39.380747,
    "Lon":-121.386228,
    "Temp":100.99,
    "Station":"BNGC1"
  },
  {
    "Lat":38.028056,
    "Lon":-122.702222,
    "Temp":66.99,
    "Station":"BBEC1"
  },
  {
    "Lat":35.881944,
    "Lon":-118.075556,
    "Temp":64.99,
    "Station":"BPKC1"
  },
  {
    "Lat":38.481903,
    "Lon":-120.315817,
    "Temp":80.01,
    "Station":"COKC1"
  },
  {
    "Lat":33.551833,
    "Lon":-117.572944,
    "Temp":69.01,
    "Station":"CAPC1"
  },
  {
    "Lat":38.590836,
    "Lon":-120.933622,
    "Temp":99,
    "Station":"BENC1"
  },
  {
    "Lat":37.130936,
    "Lon":-122.172606,
    "Temp":78.01,
    "Station":"BNDC1"
  },
  {
    "Lat":37.843333,
    "Lon":-118.478528,
    "Temp":82.99,
    "Station":"BETC1"
  },
  {
    "Lat":34.124861,
    "Lon":-118.412569,
    "Temp":66.99,
    "Station":"BVRC1"
  },
  {
    "Lat":40.742164,
    "Lon":-123.249178,
    "Temp":93,
    "Station":"BGBC1"
  },
  {
    "Lat":37.95,
    "Lon":-121.884444,
    "Temp":82.99,
    "Station":"PIBC1"
  },
  {
    "Lat":41.054083,
    "Lon":-120.337528,
    "Temp":80.01,
    "Station":"BDOC1"
  },
  {
    "Lat":40.592075,
    "Lon":-121.077947,
    "Temp":79,
    "Station":"BOGC1"
  },
  {
    "Lat":38.987356,
    "Lon":-123.348464,
    "Temp":90,
    "Station":"BNVC1"
  },
  {
    "Lat":35.185233,
    "Lon":-120.084989,
    "Temp":75.99,
    "Station":"BRHC1"
  },
  {
    "Lat":41.675756,
    "Lon":-122.599903,
    "Temp":91.99,
    "Station":"BZRC1"
  },
  {
    "Lat":37.934167,
    "Lon":-122.117778,
    "Temp":77,
    "Station":"PLEC1"
  },
  {
    "Lat":38.738364,
    "Lon":-122.144686,
    "Temp":99,
    "Station":"BKSC1"
  },
  {
    "Lat":40.481472,
    "Lon":-120.115083,
    "Temp":88,
    "Station":"BUFC1"
  },
  {
    "Lat":34.208417,
    "Lon":-116.621611,
    "Temp":72,
    "Station":"BCNC1"
  },
  {
    "Lat":37.553056,
    "Lon":-121.843889,
    "Temp":75.99,
    "Station":"PEAC1"
  },
  {
    "Lat":41.299739,
    "Lon":-122.825525,
    "Temp":84,
    "Station":"CLNC1"
  },
  {
    "Lat":32.721189,
    "Lon":-116.464669,
    "Temp":78.01,
    "Station":"CMNC1"
  },
  {
    "Lat":34.35325,
    "Lon":-118.418578,
    "Temp":75,
    "Station":"CNIC1"
  },
  {
    "Lat":35.096528,
    "Lon":-119.773222,
    "Temp":88,
    "Station":"CAZC1"
  },
  {
    "Lat":33.445878,
    "Lon":-117.419117,
    "Temp":71.01,
    "Station":"CSPC1"
  },
  {
    "Lat":46.439581,
    "Lon":-114.226822,
    "Temp":63,
    "Station":"SMTM8"
  },
  {
    "Lat":37.759469,
    "Lon":-119.820561,
    "Temp":73.99,
    "Station":"CNFC1"
  },
  {
    "Lat":34.186575,
    "Lon":-118.719561,
    "Temp":80.01,
    "Station":"CEEC1"
  },
  {
    "Lat":40.292608,
    "Lon":-121.243939,
    "Temp":84,
    "Station":"CESC1"
  },
  {
    "Lat":39.589833,
    "Lon":-121.635161,
    "Temp":100.99,
    "Station":"CICC1"
  },
  {
    "Lat":34.331667,
    "Lon":-118.030278,
    "Temp":75,
    "Station":"CHOC1"
  },
  {
    "Lat":34.806369,
    "Lon":-119.013625,
    "Temp":75,
    "Station":"CUUC1"
  },
  {
    "Lat":34.1368,
    "Lon":-117.707569,
    "Temp":78.01,
    "Station":"CMOC1"
  },
  {
    "Lat":39.871836,
    "Lon":-121.768983,
    "Temp":97,
    "Station":"CSTC1"
  },
  {
    "Lat":34.194167,
    "Lon":-116.913056,
    "Temp":66.99,
    "Station":"CVEC1"
  },
  {
    "Lat":40.256833,
    "Lon":-124.266028,
    "Temp":80.01,
    "Station":"PTEC1"
  },
  {
    "Lat":39.938944,
    "Lon":-122.169733,
    "Temp":102,
    "Station":"CRGC1"
  },
  {
    "Lat":36.990856,
    "Lon":-121.804881,
    "Temp":68,
    "Station":"CTOC1"
  },
  {
    "Lat":39.018833,
    "Lon":-122.411694,
    "Temp":91,
    "Station":"WISC1"
  },
  {
    "Lat":41.976389,
    "Lon":-123.612222,
    "Temp":84.99,
    "Station":"CRZC1"
  },
  {
    "Lat":37.737447,
    "Lon":-118.996581,
    "Temp":71.01,
    "Station":"CRVC1"
  },
  {
    "Lat":34.429719,
    "Lon":-118.667119,
    "Temp":82.99,
    "Station":"DLVC1"
  },
  {
    "Lat":32.857394,
    "Lon":-116.622392,
    "Temp":72,
    "Station":"DENC1"
  },
  {
    "Lat":41.528394,
    "Lon":-120.672544,
    "Temp":84.99,
    "Station":"ATSC1"
  },
  {
    "Lat":34.221067,
    "Lon":-117.404369,
    "Temp":84,
    "Station":"DVOC1"
  },
  {
    "Lat":37.329269,
    "Lon":-121.295381,
    "Temp":91.99,
    "Station":"DBLC1"
  },
  {
    "Lat":39.303514,
    "Lon":-121.11725,
    "Temp":91.99,
    "Station":"RRRC1"
  },
  {
    "Lat":40.058861,
    "Lon":-120.093722,
    "Temp":87.01,
    "Station":"DYLC1"
  },
  {
    "Lat":39.825278,
    "Lon":-123.0825,
    "Temp":95,
    "Station":"EELC1"
  },
  {
    "Lat":33.647114,
    "Lon":-117.412031,
    "Temp":72,
    "Station":"ECSC1"
  },
  {
    "Lat":34.634361,
    "Lon":-117.548889,
    "Temp":95,
    "Station":"EMRC1"
  },
  {
    "Lat":38.284417,
    "Lon":-120.48975,
    "Temp":91,
    "Station":"ESPC1"
  },
  {
    "Lat":36.8837,
    "Lon":-119.475719,
    "Temp":100.99,
    "Station":"FCHC1"
  },
  {
    "Lat":34.266111,
    "Lon":-116.898889,
    "Temp":62.01,
    "Station":"FWSC1"
  },
  {
    "Lat":32.990306,
    "Lon":-116.066972,
    "Temp":97,
    "Station":"FHCC1"
  },
  {
    "Lat":35.891161,
    "Lon":-118.915594,
    "Temp":98.01,
    "Station":"FTNC1"
  },
  {
    "Lat":33.811139,
    "Lon":-117.708361,
    "Temp":68,
    "Station":"FRCC1"
  },
  {
    "Lat":40.505522,
    "Lon":-123.343197,
    "Temp":78.01,
    "Station":"FMOC1"
  },
  {
    "Lat":34.592586,
    "Lon":-117.168303,
    "Temp":86,
    "Station":"GNTC1"
  },
  {
    "Lat":40.781694,
    "Lon":-120.784372,
    "Temp":75.99,
    "Station":"GRSC1"
  },
  {
    "Lat":37.834181,
    "Lon":-120.503106,
    "Temp":97,
    "Station":"GNSC1"
  },
  {
    "Lat":36.3885,
    "Lon":-121.551594,
    "Temp":73.99,
    "Station":"CAHC1"
  },
  {
    "Lat":38.735086,
    "Lon":-122.837058,
    "Temp":88,
    "Station":"HWKC1"
  },
  {
    "Lat":39.069711,
    "Lon":-120.419886,
    "Temp":77,
    "Station":"HLLC1"
  },
  {
    "Lat":36.382542,
    "Lon":-120.855819,
    "Temp":81,
    "Station":"HDZC1"
  },
  {
    "Lat":39.208897,
    "Lon":-122.809989,
    "Temp":79,
    "Station":"HGLC1"
  },
  {
    "Lat":40.623333,
    "Lon":-120.477778,
    "Temp":84.99,
    "Station":"HLKC1"
  },
  {
    "Lat":35.770667,
    "Lon":-115.909417,
    "Temp":82,
    "Station":"HTSC1"
  },
  {
    "Lat":36.5625,
    "Lon":-117.473611,
    "Temp":75,
    "Station":"HTRC1"
  },
  {
    "Lat":35.294889,
    "Lon":-118.226778,
    "Temp":82.99,
    "Station":"JWBC1"
  },
  {
    "Lat":41.8019,
    "Lon":-122.1097,
    "Temp":75,
    "Station":"JTAC1"
  },
  {
    "Lat":33.075686,
    "Lon":-116.592575,
    "Temp":78.01,
    "Station":"JULC1"
  },
  {
    "Lat":41.332667,
    "Lon":-120.472806,
    "Temp":87.01,
    "Station":"JPRC1"
  },
  {
    "Lat":33.666667,
    "Lon":-116.766667,
    "Temp":75.99,
    "Station":"KNWC1"
  },
  {
    "Lat":35.7772,
    "Lon":-118.433739,
    "Temp":91.99,
    "Station":"KRNC1"
  },
  {
    "Lat":36.031139,
    "Lon":-120.054833,
    "Temp":97,
    "Station":"KTLC1"
  },
  {
    "Lat":38.861944,
    "Lon":-122.417222,
    "Temp":88,
    "Station":"KNXC1"
  },
  {
    "Lat":37.305233,
    "Lon":-122.255253,
    "Temp":64.99,
    "Station":"LAHC1"
  },
  {
    "Lat":35.380725,
    "Lon":-120.188094,
    "Temp":88,
    "Station":"LPZC1"
  },
  {
    "Lat":40.807106,
    "Lon":-121.296506,
    "Temp":81,
    "Station":"LDRC1"
  },
  {
    "Lat":35.656447,
    "Lon":-120.9241,
    "Temp":77,
    "Station":"TABC1"
  },
  {
    "Lat":37.833889,
    "Lon":-122.066944,
    "Temp":84,
    "Station":"LTRC1"
  },
  {
    "Lat":40.344144,
    "Lon":-121.713733,
    "Temp":84.99,
    "Station":"LSNC1"
  },
  {
    "Lat":40.141667,
    "Lon":-120.353333,
    "Temp":75,
    "Station":"LAFC1"
  },
  {
    "Lat":34.045114,
    "Lon":-118.935989,
    "Temp":66,
    "Station":"LCBC1"
  },
  {
    "Lat":38.881031,
    "Lon":-121.266689,
    "Temp":97,
    "Station":"LICC1"
  },
  {
    "Lat":37.354722,
    "Lon":-122.141667,
    "Temp":72,
    "Station":"LOAC1"
  },
  {
    "Lat":37.0548,
    "Lon":-121.053094,
    "Temp":81,
    "Station":"SLRC1"
  },
  {
    "Lat":37.204167,
    "Lon":-121.950833,
    "Temp":82,
    "Station":"LSGC1"
  },
  {
    "Lat":34.544397,
    "Lon":-119.791286,
    "Temp":84,
    "Station":"LPOC1"
  },
  {
    "Lat":34.017792,
    "Lon":-116.188569,
    "Temp":82,
    "Station":"LTHC1"
  },
  {
    "Lat":39.125833,
    "Lon":-123.073333,
    "Temp":81,
    "Station":"COWC1"
  },
  {
    "Lat":34.061561,
    "Lon":-118.645219,
    "Temp":73.99,
    "Station":"MBUC1"
  },
  {
    "Lat":37.817222,
    "Lon":-121.778889,
    "Temp":87.01,
    "Station":"LVMC1"
  },
  {
    "Lat":40.541492,
    "Lon":-121.580153,
    "Temp":73.99,
    "Station":"VIOC1"
  },
  {
    "Lat":37.504025,
    "Lon":-119.986794,
    "Temp":88,
    "Station":"MPOC1"
  },
  {
    "Lat":38.690444,
    "Lon":-119.774972,
    "Temp":82,
    "Station":"MKEC1"
  },
  {
    "Lat":37.4094,
    "Lon":-119.767894,
    "Temp":91.99,
    "Station":"MCFC1"
  },
  {
    "Lat":35.123167,
    "Lon":-115.411306,
    "Temp":73,
    "Station":"MDHC1"
  },
  {
    "Lat":34.390278,
    "Lon":-118.0825,
    "Temp":77,
    "Station":"MLCC1"
  },
  {
    "Lat":34.083611,
    "Lon":-117.034722,
    "Temp":82.99,
    "Station":"MMKC1"
  },
  {
    "Lat":35.535861,
    "Lon":-118.140333,
    "Temp":75.99,
    "Station":"BIJC1"
  },
  {
    "Lat":34.461397,
    "Lon":-119.649014,
    "Temp":70,
    "Station":"MTIC1"
  },
  {
    "Lat":38.390064,
    "Lon":-120.652403,
    "Temp":89.01,
    "Station":"MTZC1"
  },
  {
    "Lat":32.881217,
    "Lon":-116.428803,
    "Temp":71.01,
    "Station":"MLGC1"
  },
  {
    "Lat":36.843611,
    "Lon":-118.265556,
    "Temp":87.01,
    "Station":"IDPC1"
  },
  {
    "Lat":33.385967,
    "Lon":-116.796836,
    "Temp":79,
    "Station":"OGVC1"
  },
  {
    "Lat":41.838358,
    "Lon":-122.850153,
    "Temp":86,
    "Station":"OKNC1"
  },
  {
    "Lat":41.006331,
    "Lon":-121.984431,
    "Temp":98.01,
    "Station":"OMTC1"
  },
  {
    "Lat":37.865,
    "Lon":-122.220833,
    "Temp":57.99,
    "Station":"ONOC1"
  },
  {
    "Lat":37.786111,
    "Lon":-122.144722,
    "Temp":69.01,
    "Station":"OKSC1"
  },
  {
    "Lat":35.154278,
    "Lon":-117.175694,
    "Temp":82.99,
    "Station":"OPLC1"
  },
  {
    "Lat":38.735819,
    "Lon":-120.241583,
    "Temp":75.99,
    "Station":"OWNC1"
  },
  {
    "Lat":36.727136,
    "Lon":-120.765872,
    "Temp":91.99,
    "Station":"PCEC1"
  },
  {
    "Lat":36.724167,
    "Lon":-118.9425,
    "Temp":71.01,
    "Station":"PRGC1"
  },
  {
    "Lat":35.898306,
    "Lon":-120.433286,
    "Temp":86,
    "Station":"PKFC1"
  },
  {
    "Lat":40.286083,
    "Lon":-122.874689,
    "Temp":87.01,
    "Station":"PMCC1"
  },
  {
    "Lat":40.246111,
    "Lon":-120.642222,
    "Temp":78.01,
    "Station":"PIEC1"
  },
  {
    "Lat":39.474683,
    "Lon":-121.202394,
    "Temp":84.99,
    "Station":"PKCC1"
  },
  {
    "Lat":38.831681,
    "Lon":-121.0092,
    "Temp":96.01,
    "Station":"PLTC1"
  },
  {
    "Lat":34.728319,
    "Lon":-118.394058,
    "Temp":86,
    "Station":"PPPC1"
  },
  {
    "Lat":32.605861,
    "Lon":-116.608822,
    "Temp":80.01,
    "Station":"POTC1"
  },
  {
    "Lat":37.443056,
    "Lon":-121.770556,
    "Temp":77,
    "Station":"MIPC1"
  },
  {
    "Lat":37.475,
    "Lon":-122.298056,
    "Temp":68,
    "Station":"PUGC1"
  },
  {
    "Lat":41.599119,
    "Lon":-122.933675,
    "Temp":91,
    "Station":"QTZC1"
  },
  {
    "Lat":39.973333,
    "Lon":-120.941944,
    "Temp":86,
    "Station":"QYRC1"
  },
  {
    "Lat":33.222222,
    "Lon":-116.497461,
    "Temp":78.01,
    "Station":"RCHC1"
  },
  {
    "Lat":34.06075,
    "Lon":-114.732278,
    "Temp":97,
    "Station":"RVYC1"
  },
  {
    "Lat":37.501944,
    "Lon":-121.735556,
    "Temp":84,
    "Station":"RSPC1"
  },
  {
    "Lat":34.543383,
    "Lon":-119.184931,
    "Temp":86,
    "Station":"ROVC1"
  },
  {
    "Lat":41.427042,
    "Lon":-121.462633,
    "Temp":81,
    "Station":"RNDC1"
  },
  {
    "Lat":34.668569,
    "Lon":-117.821839,
    "Temp":88,
    "Station":"SDLC1"
  },
  {
    "Lat":33.487428,
    "Lon":-119.030322,
    "Temp":66,
    "Station":"SBIC1"
  },
  {
    "Lat":34.126139,
    "Lon":-117.947169,
    "Temp":79,
    "Station":"STFC1"
  },
  {
    "Lat":36.348111,
    "Lon":-120.600111,
    "Temp":78.01,
    "Station":"SRTC1"
  },
  {
    "Lat":38.478483,
    "Lon":-122.711797,
    "Temp":69.01,
    "Station":"RSAC1"
  },
  {
    "Lat":33.978883,
    "Lon":-120.0788,
    "Temp":57.99,
    "Station":"SRIC1"
  },
  {
    "Lat":33.518103,
    "Lon":-117.229061,
    "Temp":66.99,
    "Station":"SRUC1"
  },
  {
    "Lat":34.435011,
    "Lon":-118.513181,
    "Temp":96.01,
    "Station":"SAUC1"
  },
  {
    "Lat":41.301233,
    "Lon":-123.129714,
    "Temp":86,
    "Station":"SWBC1"
  },
  {
    "Lat":41.109483,
    "Lon":-122.697467,
    "Temp":91,
    "Station":"CFCC1"
  },
  {
    "Lat":39.183833,
    "Lon":-120.884422,
    "Temp":95,
    "Station":"SETC1"
  },
  {
    "Lat":36.567072,
    "Lon":-118.957875,
    "Temp":86,
    "Station":"SHQC1"
  },
  {
    "Lat":41.071303,
    "Lon":-122.369931,
    "Temp":91.99,
    "Station":"SMSC1"
  },
  {
    "Lat":41.858336,
    "Lon":-123.353661,
    "Temp":84.99,
    "Station":"ATRC1"
  },
  {
    "Lat":39.425,
    "Lon":-122.977222,
    "Temp":82.99,
    "Station":"SOAC1"
  },
  {
    "Lat":40.926781,
    "Lon":-121.584325,
    "Temp":88,
    "Station":"SDRC1"
  },
  {
    "Lat":41.390267,
    "Lon":-123.492589,
    "Temp":91.99,
    "Station":"SMBC1"
  },
  {
    "Lat":37.5625,
    "Lon":-122.436389,
    "Temp":69.01,
    "Station":"HSPC1"
  },
  {
    "Lat":35.368278,
    "Lon":-117.570444,
    "Temp":90,
    "Station":"SQSC1"
  },
  {
    "Lat":39.471094,
    "Lon":-120.086975,
    "Temp":84,
    "Station":"SMDC1"
  },
  {
    "Lat":36.726667,
    "Lon":-118.675,
    "Temp":64.99,
    "Station":"HUMC1"
  },
  {
    "Lat":34.206944,
    "Lon":-117.760556,
    "Temp":80.01,
    "Station":"TANC1"
  },
  {
    "Lat":39.854214,
    "Lon":-122.609903,
    "Temp":102.99,
    "Station":"TCKC1"
  },
  {
    "Lat":41.6525,
    "Lon":-118.044167,
    "Temp":77,
    "Station":"TR730"
  },
  {
    "Lat":40.786419,
    "Lon":-122.804486,
    "Temp":91.99,
    "Station":"TCAC1"
  },
  {
    "Lat":33.237011,
    "Lon":-117.008592,
    "Temp":70,
    "Station":"VLCC1"
  },
  {
    "Lat":41.642967,
    "Lon":-121.794875,
    "Temp":80.01,
    "Station":"VABC1"
  },
  {
    "Lat":35.665833,
    "Lon":-118.056944,
    "Temp":80.01,
    "Station":"ONYC1"
  },
  {
    "Lat":34.595833,
    "Lon":-118.578611,
    "Temp":79,
    "Station":"WMSC1"
  },
  {
    "Lat":41.478925,
    "Lon":-122.454625,
    "Temp":93,
    "Station":"WEEC1"
  },
  {
    "Lat":40.305867,
    "Lon":-120.903322,
    "Temp":75.99,
    "Station":"WWDC1"
  },
  {
    "Lat":39.316667,
    "Lon":-120.8375,
    "Temp":82.99,
    "Station":"CISC1"
  },
  {
    "Lat":40.619475,
    "Lon":-121.899622,
    "Temp":93.99,
    "Station":"WITC1"
  },
  {
    "Lat":33.984,
    "Lon":-118.009431,
    "Temp":73.99,
    "Station":"WTHC1"
  },
  {
    "Lat":36.445,
    "Lon":-118.703333,
    "Temp":77,
    "Station":"WVTC1"
  },
  {
    "Lat":37.859417,
    "Lon":-119.651667,
    "Temp":66,
    "Station":"WWRC1"
  },
  {
    "Lat":40.337447,
    "Lon":-123.065622,
    "Temp":84,
    "Station":"YOBC1"
  },
  {
    "Lat":34.124081,
    "Lon":-116.408831,
    "Temp":87.01,
    "Station":"UCCC1"
  },
  {
    "Lat":37.020833,
    "Lon":-106.201111,
    "Temp":57.99,
    "Station":"BHRC2"
  },
  {
    "Lat":38.542528,
    "Lon":-107.685972,
    "Temp":62.01,
    "Station":"LPRC2"
  },
  {
    "Lat":37.793056,
    "Lon":-106.778611,
    "Temp":53.01,
    "Station":"BLPC2"
  },
  {
    "Lat":38.459444,
    "Lon":-109.046944,
    "Temp":64,
    "Station":"CPTC2"
  },
  {
    "Lat":37.199444,
    "Lon":-108.489167,
    "Temp":71.01,
    "Station":"CHAC2"
  },
  {
    "Lat":39.181389,
    "Lon":-105.267222,
    "Temp":64,
    "Station":"CHRC2"
  },
  {
    "Lat":38.345694,
    "Lon":-105.451917,
    "Temp":66.99,
    "Station":"CGRC2"
  },
  {
    "Lat":38.573056,
    "Lon":-108.277778,
    "Temp":73.99,
    "Station":"CMEC2"
  },
  {
    "Lat":40.078444,
    "Lon":-107.368,
    "Temp":61,
    "Station":"DHOC2"
  },
  {
    "Lat":39.460028,
    "Lon":-108.880306,
    "Temp":72,
    "Station":"DMMC2"
  },
  {
    "Lat":37.226944,
    "Lon":-107.305278,
    "Temp":64,
    "Station":"DYKC2"
  },
  {
    "Lat":40.510556,
    "Lon":-108.934167,
    "Temp":75,
    "Station":"SURC2"
  },
  {
    "Lat":39.627639,
    "Lon":-106.452167,
    "Temp":62.01,
    "Station":"DJTC2"
  },
  {
    "Lat":39.915167,
    "Lon":-108.887667,
    "Temp":71.01,
    "Station":"DRAC2"
  },
  {
    "Lat":40.534722,
    "Lon":-106.780833,
    "Temp":57.99,
    "Station":"DRYC2"
  },
  {
    "Lat":38.607569,
    "Lon":-104.886669,
    "Temp":69.01,
    "Station":"FCRC2"
  },
  {
    "Lat":40.757583,
    "Lon":-107.8535,
    "Temp":79,
    "Station":"GDRC2"
  },
  {
    "Lat":40.211083,
    "Lon":-106.3295,
    "Temp":62.01,
    "Station":"GSPC2"
  },
  {
    "Lat":39.694389,
    "Lon":-106.973389,
    "Temp":69.01,
    "Station":"GPRC2"
  },
  {
    "Lat":39.771389,
    "Lon":-108.329167,
    "Temp":64.99,
    "Station":"HCKC2"
  },
  {
    "Lat":38.331944,
    "Lon":-107.088889,
    "Temp":64,
    "Station":"HMEC2"
  },
  {
    "Lat":38.753222,
    "Lon":-108.579694,
    "Temp":64,
    "Station":"JCRC2"
  },
  {
    "Lat":38.845583,
    "Lon":-107.738528,
    "Temp":75,
    "Station":"JAYC2"
  },
  {
    "Lat":40.738556,
    "Lon":-108.836583,
    "Temp":73,
    "Station":"LODC2"
  },
  {
    "Lat":38.978611,
    "Lon":-105.354444,
    "Temp":63,
    "Station":"LKGC2"
  },
  {
    "Lat":38.968528,
    "Lon":-108.944306,
    "Temp":70,
    "Station":"LDRC2"
  },
  {
    "Lat":37.056394,
    "Lon":-107.708711,
    "Temp":66,
    "Station":"MMRC2"
  },
  {
    "Lat":38.233333,
    "Lon":-108.561667,
    "Temp":77,
    "Station":"NUCC2"
  },
  {
    "Lat":39.238056,
    "Lon":-108.383111,
    "Temp":75.99,
    "Station":"PNRC2"
  },
  {
    "Lat":37.5425,
    "Lon":-104.031944,
    "Temp":66.99,
    "Station":"CCEC2"
  },
  {
    "Lat":40.020917,
    "Lon":-108.398111,
    "Temp":69.01,
    "Station":"PIRC2"
  },
  {
    "Lat":40.098056,
    "Lon":-106.680556,
    "Temp":59,
    "Station":"PCPC2"
  },
  {
    "Lat":38.827222,
    "Lon":-106.211667,
    "Temp":52,
    "Station":"RDKC2"
  },
  {
    "Lat":40.798056,
    "Lon":-105.572222,
    "Temp":62.01,
    "Station":"RFRC2"
  },
  {
    "Lat":39.512444,
    "Lon":-107.748917,
    "Temp":78.01,
    "Station":"RFEC2"
  },
  {
    "Lat":37.651111,
    "Lon":-108.536944,
    "Temp":68,
    "Station":"SAWC2"
  },
  {
    "Lat":37.099822,
    "Lon":-107.302722,
    "Temp":61,
    "Station":"SDVC2"
  },
  {
    "Lat":38.192222,
    "Lon":-108.216861,
    "Temp":66.99,
    "Station":"SPKC2"
  },
  {
    "Lat":39.56,
    "Lon":-105.985556,
    "Temp":57.99,
    "Station":"SODC2"
  },
  {
    "Lat":39.586944,
    "Lon":-107.404444,
    "Temp":64,
    "Station":"STOC2"
  },
  {
    "Lat":38.908556,
    "Lon":-106.60275,
    "Temp":57.99,
    "Station":"TAPC2"
  },
  {
    "Lat":39.352417,
    "Lon":-107.094806,
    "Temp":66,
    "Station":"CRWC2"
  },
  {
    "Lat":38.002889,
    "Lon":-105.056028,
    "Temp":50,
    "Station":"WLCC2"
  },
  {
    "Lat":40.351667,
    "Lon":-106.215278,
    "Temp":55,
    "Station":"WICC2"
  },
  {
    "Lat":43.62175,
    "Lon":-113.388917,
    "Temp":69.01,
    "Station":"ACRI1"
  },
  {
    "Lat":44.385556,
    "Lon":-115.5505,
    "Temp":64,
    "Station":"BCFI1"
  },
  {
    "Lat":44.372069,
    "Lon":-114.729103,
    "Temp":64,
    "Station":"YFFI1"
  },
  {
    "Lat":42.351667,
    "Lon":-116.691944,
    "Temp":79,
    "Station":"BFRI1"
  },
  {
    "Lat":42.079556,
    "Lon":-114.486,
    "Temp":68,
    "Station":"BULI1"
  },
  {
    "Lat":44.504478,
    "Lon":-114.222486,
    "Temp":72,
    "Station":"CHRI1"
  },
  {
    "Lat":39.927,
    "Lon":-106.545167,
    "Temp":68,
    "Station":"DYGC2"
  },
  {
    "Lat":43.809861,
    "Lon":-113.84575,
    "Temp":61,
    "Station":"CBFI1"
  },
  {
    "Lat":42.985806,
    "Lon":-113.177167,
    "Temp":70,
    "Station":"CYFI1"
  },
  {
    "Lat":44.326111,
    "Lon":-117.169444,
    "Temp":77,
    "Station":"DEAI1"
  },
  {
    "Lat":42.366972,
    "Lon":-112.706306,
    "Temp":59,
    "Station":"DPKI1"
  },
  {
    "Lat":43.173917,
    "Lon":-115.151861,
    "Temp":72,
    "Station":"DEHI1"
  },
  {
    "Lat":46.621667,
    "Lon":-116.218333,
    "Temp":77,
    "Station":"DNFI1"
  },
  {
    "Lat":42.866806,
    "Lon":-111.218861,
    "Temp":55.99,
    "Station":"DMNI1"
  },
  {
    "Lat":44.848833,
    "Lon":-114.026389,
    "Temp":66.99,
    "Station":"EZRI1"
  },
  {
    "Lat":46.101694,
    "Lon":-115.547028,
    "Temp":71.01,
    "Station":"FERI1"
  },
  {
    "Lat":47.135178,
    "Lon":-115.876603,
    "Temp":66,
    "Station":"FHFI1"
  },
  {
    "Lat":43.619722,
    "Lon":-114.899444,
    "Temp":73.99,
    "Station":"FLEI1"
  },
  {
    "Lat":42.0688,
    "Lon":-112.190581,
    "Temp":70,
    "Station":"FLFI1"
  },
  {
    "Lat":44.168583,
    "Lon":-111.781611,
    "Temp":59,
    "Station":"GASI1"
  },
  {
    "Lat":42.095917,
    "Lon":-113.899083,
    "Temp":71.01,
    "Station":"GSKI1"
  },
  {
    "Lat":42.540694,
    "Lon":-111.855333,
    "Temp":64.99,
    "Station":"GRAI1"
  },
  {
    "Lat":42.417222,
    "Lon":-115.227778,
    "Temp":73,
    "Station":"HBFI1"
  },
  {
    "Lat":43.948056,
    "Lon":-114.756111,
    "Temp":60.01,
    "Station":"HPFI1"
  },
  {
    "Lat":45.400667,
    "Lon":-114.163389,
    "Temp":73.99,
    "Station":"INDI1"
  },
  {
    "Lat":45.355944,
    "Lon":-113.895028,
    "Temp":73.99,
    "Station":"KRCI1"
  },
  {
    "Lat":44.701917,
    "Lon":-113.346917,
    "Temp":66,
    "Station":"LDOI1"
  },
  {
    "Lat":44.091111,
    "Lon":-115.880556,
    "Temp":75,
    "Station":"LTAI1"
  },
  {
    "Lat":44.722833,
    "Lon":-114.996361,
    "Temp":75,
    "Station":"THFI1"
  },
  {
    "Lat":45.378367,
    "Lon":-115.1882,
    "Temp":71.01,
    "Station":"LPFI1"
  },
  {
    "Lat":42.043056,
    "Lon":-113.152778,
    "Temp":70,
    "Station":"MOFI1"
  },
  {
    "Lat":43.650583,
    "Lon":-111.531833,
    "Temp":61,
    "Station":"MYFI1"
  },
  {
    "Lat":46.128056,
    "Lon":-114.916667,
    "Temp":72,
    "Station":"MOOI1"
  },
  {
    "Lat":43.6005,
    "Lon":-114.316861,
    "Temp":69.01,
    "Station":"OHOI1"
  },
  {
    "Lat":46.496433,
    "Lon":-115.795561,
    "Temp":64.99,
    "Station":"PIEI1"
  },
  {
    "Lat":44.250278,
    "Lon":-116.198611,
    "Temp":68,
    "Station":"PNFI1"
  },
  {
    "Lat":45.6375,
    "Lon":-116.468611,
    "Temp":88,
    "Station":"PLFI1"
  },
  {
    "Lat":42.898944,
    "Lon":-111.83325,
    "Temp":63,
    "Station":"PCNI1"
  },
  {
    "Lat":42.069444,
    "Lon":-115.786111,
    "Temp":75,
    "Station":"PCKI1"
  },
  {
    "Lat":46.929722,
    "Lon":-116.908889,
    "Temp":79,
    "Station":"POTI1"
  },
  {
    "Lat":43.225722,
    "Lon":-113.574833,
    "Temp":72,
    "Station":"PBUI1"
  },
  {
    "Lat":42.547944,
    "Lon":-113.259472,
    "Temp":73,
    "Station":"RFTI1"
  },
  {
    "Lat":45.7125,
    "Lon":-115.3375,
    "Temp":72,
    "Station":"RRFI1"
  },
  {
    "Lat":42.972361,
    "Lon":-114.062528,
    "Temp":75.99,
    "Station":"ROCI1"
  },
  {
    "Lat":46.533611,
    "Lon":-114.591667,
    "Temp":61,
    "Station":"RONI1"
  },
  {
    "Lat":48.938553,
    "Lon":-116.734511,
    "Temp":60.01,
    "Station":"SADI1"
  },
  {
    "Lat":45.149833,
    "Lon":-113.945361,
    "Temp":72,
    "Station":"SMYI1"
  },
  {
    "Lat":46.981944,
    "Lon":-116.618333,
    "Temp":77,
    "Station":"SHCI1"
  },
  {
    "Lat":44.942897,
    "Lon":-116.188197,
    "Temp":73,
    "Station":"SFFI1"
  },
  {
    "Lat":45.336472,
    "Lon":-114.502361,
    "Temp":71.01,
    "Station":"SKFI1"
  },
  {
    "Lat":45.633333,
    "Lon":-116.283333,
    "Temp":88,
    "Station":"SCFI1"
  },
  {
    "Lat":45.099717,
    "Lon":-116.737817,
    "Temp":81,
    "Station":"SRFI1"
  },
  {
    "Lat":44.904333,
    "Lon":-115.738583,
    "Temp":73.99,
    "Station":"MCLI1"
  },
  {
    "Lat":43.939583,
    "Lon":-115.911528,
    "Temp":72,
    "Station":"TCFI1"
  },
  {
    "Lat":42.308056,
    "Lon":-114.318056,
    "Temp":72,
    "Station":"TGFI1"
  },
  {
    "Lat":42.828611,
    "Lon":-116.588611,
    "Temp":72,
    "Station":"TRII1"
  },
  {
    "Lat":42.690556,
    "Lon":-115.195278,
    "Temp":82.99,
    "Station":"TWBI1"
  },
  {
    "Lat":44.847333,
    "Lon":-116.427667,
    "Temp":81,
    "Station":"WEFI1"
  },
  {
    "Lat":44.686667,
    "Lon":-112.541667,
    "Temp":62.01,
    "Station":"LMRM8"
  },
  {
    "Lat":47.58875,
    "Lon":-108.868083,
    "Temp":77,
    "Station":"ARMM8"
  },
  {
    "Lat":45.648131,
    "Lon":-106.502739,
    "Temp":71.01,
    "Station":"BAFM8"
  },
  {
    "Lat":48.633333,
    "Lon":-115.583333,
    "Temp":71.01,
    "Station":"BIFM8"
  },
  {
    "Lat":47.5,
    "Lon":-112.9,
    "Temp":59,
    "Station":"BEFM8"
  },
  {
    "Lat":47.028167,
    "Lon":-105.804694,
    "Temp":68,
    "Station":"LCFM8"
  },
  {
    "Lat":45.073325,
    "Lon":-107.888722,
    "Temp":53.01,
    "Station":"BHMM8"
  },
  {
    "Lat":48.868333,
    "Lon":-106.948139,
    "Temp":71.01,
    "Station":"BLUM8"
  },
  {
    "Lat":45.054861,
    "Lon":-105.948417,
    "Temp":72,
    "Station":"BSHM8"
  },
  {
    "Lat":44.936556,
    "Lon":-113.252389,
    "Temp":69.01,
    "Station":"BRRM8"
  },
  {
    "Lat":45.129583,
    "Lon":-108.303972,
    "Temp":51.01,
    "Station":"BRTM8"
  },
  {
    "Lat":46.483694,
    "Lon":-104.066889,
    "Temp":64.99,
    "Station":"CACM8"
  },
  {
    "Lat":48.724167,
    "Lon":-114.335833,
    "Temp":66,
    "Station":"CYFM8"
  },
  {
    "Lat":47.244139,
    "Lon":-108.358917,
    "Temp":75.99,
    "Station":"DBCM8"
  },
  {
    "Lat":45.458056,
    "Lon":-109.571389,
    "Temp":64,
    "Station":"FSLM8"
  },
  {
    "Lat":48.304203,
    "Lon":-108.7189,
    "Temp":64.99,
    "Station":"FBLM8"
  },
  {
    "Lat":45.297222,
    "Lon":-106.161833,
    "Temp":75,
    "Station":"FHFM8"
  },
  {
    "Lat":46.222222,
    "Lon":-112.229167,
    "Temp":63,
    "Station":"GAAM8"
  },
  {
    "Lat":46.329167,
    "Lon":-111.588056,
    "Temp":66,
    "Station":"GINM8"
  },
  {
    "Lat":47.615197,
    "Lon":-114.670303,
    "Temp":75.99,
    "Station":"HOTM8"
  },
  {
    "Lat":47.767056,
    "Lon":-114.233778,
    "Temp":72,
    "Station":"JETM8"
  },
  {
    "Lat":47.796722,
    "Lon":-107.02175,
    "Temp":73,
    "Station":"KIGM8"
  },
  {
    "Lat":46.307389,
    "Lon":-105.029778,
    "Temp":73,
    "Station":"KTFM8"
  },
  {
    "Lat":45.569919,
    "Lon":-107.436225,
    "Temp":75.99,
    "Station":"LBHM8"
  },
  {
    "Lat":47.831444,
    "Lon":-109.008389,
    "Temp":73.99,
    "Station":"LBCM8"
  },
  {
    "Lat":47.701639,
    "Lon":-108.478083,
    "Temp":75.99,
    "Station":"MCDM8"
  },
  {
    "Lat":47.268333,
    "Lon":-114.916944,
    "Temp":72,
    "Station":"PRDM8"
  },
  {
    "Lat":46.776,
    "Lon":-104.580194,
    "Temp":73.99,
    "Station":"PNHM8"
  },
  {
    "Lat":48.127083,
    "Lon":-105.07335,
    "Temp":75,
    "Station":"POPM8"
  },
  {
    "Lat":45.337172,
    "Lon":-108.492158,
    "Temp":61,
    "Station":"PMRM8"
  },
  {
    "Lat":44.683333,
    "Lon":-111.833333,
    "Temp":57,
    "Station":"RRDM8"
  },
  {
    "Lat":48.255294,
    "Lon":-109.785919,
    "Temp":71.01,
    "Station":"RCBM8"
  },
  {
    "Lat":47.562139,
    "Lon":-107.5285,
    "Temp":70,
    "Station":"SSMM8"
  },
  {
    "Lat":47.923889,
    "Lon":-113.524722,
    "Temp":68,
    "Station":"SPOM8"
  },
  {
    "Lat":48.739856,
    "Lon":-113.432267,
    "Temp":63,
    "Station":"SRYM8"
  },
  {
    "Lat":46.853056,
    "Lon":-113.377444,
    "Temp":66,
    "Station":"STKM8"
  },
  {
    "Lat":44.115278,
    "Lon":-100.301389,
    "Temp":75,
    "Station":"RFPS2"
  },
  {
    "Lat":45.315981,
    "Lon":-107.163492,
    "Temp":64.99,
    "Station":"WWMM8"
  },
  {
    "Lat":47.921278,
    "Lon":-108.551139,
    "Temp":64.99,
    "Station":"ALDM8"
  },
  {
    "Lat":36.976583,
    "Lon":-107.628917,
    "Temp":69.01,
    "Station":"CWRN5"
  },
  {
    "Lat":32.178611,
    "Lon":-104.440556,
    "Temp":81,
    "Station":"BATN5"
  },
  {
    "Lat":33.390556,
    "Lon":-108.806667,
    "Temp":59,
    "Station":"MGNN5"
  },
  {
    "Lat":33.821,
    "Lon":-106.881889,
    "Temp":71.01,
    "Station":"BDAN5"
  },
  {
    "Lat":34.720003,
    "Lon":-107.8484,
    "Temp":54,
    "Station":"ACON5"
  },
  {
    "Lat":32.927333,
    "Lon":-103.856833,
    "Temp":82,
    "Station":"CPPN5"
  },
  {
    "Lat":33.772944,
    "Lon":-106.098583,
    "Temp":77,
    "Station":"BCHN5"
  },
  {
    "Lat":36.073056,
    "Lon":-106.657222,
    "Temp":54,
    "Station":"COYN5"
  },
  {
    "Lat":35.941917,
    "Lon":-107.077333,
    "Temp":60.01,
    "Station":"CBBN5"
  },
  {
    "Lat":32.32225,
    "Lon":-106.586556,
    "Temp":66.99,
    "Station":"LOMN5"
  },
  {
    "Lat":32.824667,
    "Lon":-105.182583,
    "Temp":73.99,
    "Station":"DUNN5"
  },
  {
    "Lat":33.650583,
    "Lon":-104.321333,
    "Temp":82.99,
    "Station":"REMN5"
  },
  {
    "Lat":33.223611,
    "Lon":-108.240278,
    "Temp":64.99,
    "Station":"GNMN5"
  },
  {
    "Lat":31.702,
    "Lon":-108.34175,
    "Temp":75,
    "Station":"HHRN5"
  },
  {
    "Lat":34.851806,
    "Lon":-108.174556,
    "Temp":57.99,
    "Station":"GMLN5"
  },
  {
    "Lat":32.179722,
    "Lon":-103.721667,
    "Temp":84.99,
    "Station":"MPAN5"
  },
  {
    "Lat":35.545833,
    "Lon":-105.494167,
    "Temp":54,
    "Station":"LVPN5"
  },
  {
    "Lat":33.69375,
    "Lon":-108.061611,
    "Temp":57.99,
    "Station":"DPRN5"
  },
  {
    "Lat":32.58,
    "Lon":-106.525,
    "Temp":63,
    "Station":"SNDN5"
  },
  {
    "Lat":32.431333,
    "Lon":-105.62175,
    "Temp":78.01,
    "Station":"MCRN5"
  },
  {
    "Lat":34.060556,
    "Lon":-108.444722,
    "Temp":55,
    "Station":"SLMN5"
  },
  {
    "Lat":33.350167,
    "Lon":-105.686056,
    "Temp":57.99,
    "Station":"COPN5"
  },
  {
    "Lat":39.735889,
    "Lon":-115.518583,
    "Temp":80.01,
    "Station":"ALLN2"
  },
  {
    "Lat":41.686944,
    "Lon":-116.766111,
    "Temp":82,
    "Station":"ALRN2"
  },
  {
    "Lat":41.910722,
    "Lon":-119.939333,
    "Temp":81,
    "Station":"BRLN2"
  },
  {
    "Lat":40.566333,
    "Lon":-116.757694,
    "Temp":87.01,
    "Station":"BATN2"
  },
  {
    "Lat":40.501472,
    "Lon":-119.121611,
    "Temp":88,
    "Station":"BLUN2"
  },
  {
    "Lat":39.584417,
    "Lon":-117.943917,
    "Temp":71.01,
    "Station":"CYVN2"
  },
  {
    "Lat":40.580583,
    "Lon":-119.788806,
    "Temp":88,
    "Station":"BUFN2"
  },
  {
    "Lat":41.921861,
    "Lon":-119.497194,
    "Temp":82.99,
    "Station":"CATN2"
  },
  {
    "Lat":38.903833,
    "Lon":-114.814194,
    "Temp":77,
    "Station":"CTLN2"
  },
  {
    "Lat":39.755778,
    "Lon":-114.150111,
    "Temp":73,
    "Station":"CEDN2"
  },
  {
    "Lat":39.833278,
    "Lon":-116.495417,
    "Temp":72,
    "Station":"COIN2"
  },
  {
    "Lat":39.386861,
    "Lon":-116.183,
    "Temp":82,
    "Station":"COMN2"
  },
  {
    "Lat":38.281917,
    "Lon":-114.758694,
    "Temp":84.99,
    "Station":"COYN2"
  },
  {
    "Lat":40.459528,
    "Lon":-115.849528,
    "Temp":80.01,
    "Station":"CRSN2"
  },
  {
    "Lat":38.758833,
    "Lon":-115.412139,
    "Temp":82.99,
    "Station":"CCRN2"
  },
  {
    "Lat":39.261972,
    "Lon":-118.943083,
    "Temp":88,
    "Station":"DEDN2"
  },
  {
    "Lat":39.301972,
    "Lon":-117.584,
    "Temp":81,
    "Station":"GRVN2"
  },
  {
    "Lat":39.6725,
    "Lon":-119.77,
    "Temp":82.99,
    "Station":"DESN2"
  },
  {
    "Lat":38.924694,
    "Lon":-119.64175,
    "Temp":87.01,
    "Station":"FISN2"
  },
  {
    "Lat":41.006111,
    "Lon":-119.568056,
    "Temp":79,
    "Station":"FOXN2"
  },
  {
    "Lat":37.919861,
    "Lon":-114.166722,
    "Temp":82,
    "Station":"IMWN2"
  },
  {
    "Lat":41.0805,
    "Lon":-119.776722,
    "Temp":86,
    "Station":"JSPN2"
  },
  {
    "Lat":37.250056,
    "Lon":-114.706722,
    "Temp":91,
    "Station":"KNSN2"
  },
  {
    "Lat":36.266667,
    "Lon":-115.6,
    "Temp":72,
    "Station":"KYCN2"
  },
  {
    "Lat":41.538611,
    "Lon":-116.218333,
    "Temp":81,
    "Station":"LONN2"
  },
  {
    "Lat":39.022778,
    "Lon":-114.272222,
    "Temp":60.01,
    "Station":"MTHN2"
  },
  {
    "Lat":41.453556,
    "Lon":-117.621917,
    "Temp":73.99,
    "Station":"MORN2"
  },
  {
    "Lat":36.030556,
    "Lon":-115.516667,
    "Temp":77,
    "Station":"MTSN2"
  },
  {
    "Lat":38.302917,
    "Lon":-116.193417,
    "Temp":84.99,
    "Station":"PANN2"
  },
  {
    "Lat":39.989333,
    "Lon":-117.319722,
    "Temp":86,
    "Station":"RBTN2"
  },
  {
    "Lat":36.134722,
    "Lon":-115.43,
    "Temp":88,
    "Station":"RRKN2"
  },
  {
    "Lat":41.643306,
    "Lon":-114.436333,
    "Temp":78.01,
    "Station":"RSCN2"
  },
  {
    "Lat":40.394333,
    "Lon":-117.625667,
    "Temp":87.01,
    "Station":"SIAN2"
  },
  {
    "Lat":40.593111,
    "Lon":-114.204944,
    "Temp":73.99,
    "Station":"SPGN2"
  },
  {
    "Lat":40.438139,
    "Lon":-114.810167,
    "Temp":75,
    "Station":"SPMN2"
  },
  {
    "Lat":41.517111,
    "Lon":-115.390917,
    "Temp":79,
    "Station":"STMN2"
  },
  {
    "Lat":41.800861,
    "Lon":-118.451361,
    "Temp":79,
    "Station":"TEXN2"
  },
  {
    "Lat":40.77275,
    "Lon":-118.519889,
    "Temp":82,
    "Station":"MJBN2"
  },
  {
    "Lat":42.552222,
    "Lon":-124.057778,
    "Temp":97,
    "Station":"AGFO3"
  },
  {
    "Lat":43.921389,
    "Lon":-119.596389,
    "Temp":77,
    "Station":"ALFO3"
  },
  {
    "Lat":44.039722,
    "Lon":-118.416389,
    "Temp":71.01,
    "Station":"ATFO3"
  },
  {
    "Lat":44.033889,
    "Lon":-120.407278,
    "Temp":69.01,
    "Station":"BGFO3"
  },
  {
    "Lat":42.693611,
    "Lon":-124.039444,
    "Temp":77,
    "Station":"BKFO3"
  },
  {
    "Lat":43.557417,
    "Lon":-118.407083,
    "Temp":75,
    "Station":"BAFO3"
  },
  {
    "Lat":42.254722,
    "Lon":-118.967778,
    "Temp":80.01,
    "Station":"BQFO3"
  },
  {
    "Lat":43.528056,
    "Lon":-121.815833,
    "Temp":72,
    "Station":"OKFO3"
  },
  {
    "Lat":44.67,
    "Lon":-117.933611,
    "Temp":79,
    "Station":"BYFO3"
  },
  {
    "Lat":44.598106,
    "Lon":-119.307653,
    "Temp":78.01,
    "Station":"BCFO3"
  },
  {
    "Lat":44.721944,
    "Lon":-122.003056,
    "Temp":77,
    "Station":"BOFO3"
  },
  {
    "Lat":44.323889,
    "Lon":-119.769167,
    "Temp":73.99,
    "Station":"IRFO3"
  },
  {
    "Lat":43.562806,
    "Lon":-120.236167,
    "Temp":84,
    "Station":"BWFO3"
  },
  {
    "Lat":44.284278,
    "Lon":-122.849417,
    "Temp":81,
    "Station":"BRUO3"
  },
  {
    "Lat":43.036389,
    "Lon":-122.655361,
    "Temp":91,
    "Station":"PKFO3"
  },
  {
    "Lat":42.120611,
    "Lon":-122.563944,
    "Temp":93,
    "Station":"BUCO3"
  },
  {
    "Lat":43.202778,
    "Lon":-123.7175,
    "Temp":84.99,
    "Station":"BNFO3"
  },
  {
    "Lat":43.499306,
    "Lon":-121.058389,
    "Temp":80.01,
    "Station":"CAFO3"
  },
  {
    "Lat":42.631389,
    "Lon":-121.559722,
    "Temp":73.99,
    "Station":"CLFO3"
  },
  {
    "Lat":42.779083,
    "Lon":-123.734639,
    "Temp":84.99,
    "Station":"CVFO3"
  },
  {
    "Lat":43.835083,
    "Lon":-121.083389,
    "Temp":75.99,
    "Station":"TPEO3"
  },
  {
    "Lat":44.348889,
    "Lon":-123.886667,
    "Temp":77,
    "Station":"CNFO3"
  },
  {
    "Lat":44.971111,
    "Lon":-118.929722,
    "Temp":81,
    "Station":"CEFO3"
  },
  {
    "Lat":45.211667,
    "Lon":-123.771944,
    "Temp":75.99,
    "Station":"CDFO3"
  },
  {
    "Lat":33.282669,
    "Lon":-97.632061,
    "Temp":87.01,
    "Station":"LBJT2"
  },
  {
    "Lat":42.576944,
    "Lon":-121.893611,
    "Temp":82.99,
    "Station":"CQFO3"
  },
  {
    "Lat":43.320833,
    "Lon":-122.106667,
    "Temp":80.01,
    "Station":"CIFO3"
  },
  {
    "Lat":42.556778,
    "Lon":-120.602194,
    "Temp":81,
    "Station":"PTFO3"
  },
  {
    "Lat":44.355083,
    "Lon":-120.133639,
    "Temp":78.01,
    "Station":"CSFO3"
  },
  {
    "Lat":44.316917,
    "Lon":-121.606944,
    "Temp":81,
    "Station":"CGFO3"
  },
  {
    "Lat":44.157222,
    "Lon":-118.471389,
    "Temp":75.99,
    "Station":"CPFO3"
  },
  {
    "Lat":43.841194,
    "Lon":-118.952028,
    "Temp":73,
    "Station":"CWFO3"
  },
  {
    "Lat":43.957778,
    "Lon":-124.119722,
    "Temp":60.01,
    "Station":"DUNO3"
  },
  {
    "Lat":45.876389,
    "Lon":-117.616389,
    "Temp":78.01,
    "Station":"ENFO3"
  },
  {
    "Lat":42.597722,
    "Lon":-123.105028,
    "Temp":87.01,
    "Station":"EVFO3"
  },
  {
    "Lat":44.296944,
    "Lon":-119.036944,
    "Temp":75,
    "Station":"FMFO3"
  },
  {
    "Lat":43.680528,
    "Lon":-122.302028,
    "Temp":81,
    "Station":"FEFO3"
  },
  {
    "Lat":42.471806,
    "Lon":-119.178389,
    "Temp":82,
    "Station":"FFFO3"
  },
  {
    "Lat":44.814111,
    "Lon":-117.728972,
    "Temp":82,
    "Station":"FAFO3"
  },
  {
    "Lat":43.431972,
    "Lon":-120.838417,
    "Temp":86,
    "Station":"FKFO3"
  },
  {
    "Lat":42.973611,
    "Lon":-119.246111,
    "Temp":78.01,
    "Station":"FLFO3"
  },
  {
    "Lat":42.205972,
    "Lon":-121.138056,
    "Temp":84.99,
    "Station":"GRBO3"
  },
  {
    "Lat":43.928056,
    "Lon":-123.890278,
    "Temp":84,
    "Station":"GPFO3"
  },